[
 {
    "ssc_id": "SSC-aarh",
    "psmsl": "76",
    "name": "Aarhus",
    "country": "DK",
    "geo:lat": 56.15,
    "geo:lon": 10.22,
    "dcterms:modified": "2015-10-22T17:02:29+00:00"
  },
  {
    "ssc_id": "SSC-aasi",
    "psmsl": "1900",
    "name": "Aasiaat",
    "country": "GL",
    "geo:lat": 68.72,
    "geo:lon": -52.88,
    "dcterms:modified": "2015-10-22T17:02:29+00:00"
  },
  {
    "ssc_id": "SSC-abas",
    "ioc": "abas",
    "ptwc": "abas",
    "gloss": "327",
    "uhslc": "347",
    "psmsl": "1104",
    "sonel_gps": "797",
    "sonel_tg": "2107",
    "name": "Abashiri",
    "country": "JP",
    "geo:lat": 44.02,
    "geo:lon": 144.28,
    "dcterms:modified": "2015-10-22T17:02:29+00:00"
  },
  {
    "ssc_id": "SSC-abbo",
    "psmsl": [
      "1652",
      "1656"
    ],
    "name": "Abbot Point",
    "country": "AU",
    "geo:lat": -19.85,
    "geo:lon": 148.12,
    "dcterms:modified": "2015-10-22T17:02:29+00:00"
  },
  {
    "ssc_id": "SSC-abed",
    "ioc": "abed",
    "psmsl": [
      "21",
      "361"
    ],
    "sonel_gps": "617",
    "sonel_tg": [
      "2185",
      "2735"
    ],
    "name": "Aberdeen",
    "country": "GB",
    "geo:lat": 57.14,
    "geo:lon": -2.08,
    "dcterms:modified": "2015-10-22T17:02:29+00:00"
  },
  {
    "ssc_id": "SSC-aber",
    "psmsl": "298",
    "name": "Aberdeen Point",
    "country": "SL",
    "geo:lat": 8.5,
    "geo:lon": -13.23,
    "dcterms:modified": "2015-10-22T17:02:29+00:00"
  },
  {
    "ssc_id": "SSC-abid",
    "gloss": "257",
    "uhslc": "230",
    "psmsl": [
      "1313",
      "1558"
    ],
    "sonel_tg": "2882",
    "name": "Abidjan",
    "country": "CI",
    "geo:lat": 5.25,
    "geo:lon": -4,
    "dcterms:modified": "2015-10-22T17:02:29+00:00"
  },
  {
    "ssc_id": "SSC-abua",
    "psmsl": "1510",
    "name": "Abu Ali Pier",
    "country": "SA",
    "geo:lat": 27.3,
    "geo:lon": 49.65,
    "dcterms:modified": "2015-10-22T17:02:29+00:00"
  },
  {
    "ssc_id": "SSC-abur",
    "ioc": "abur",
    "ptwc": "abur",
    "gloss": "82",
    "uhslc": "354",
    "psmsl": "814",
    "sonel_gps": "806",
    "sonel_tg": "2209",
    "name": "Aburatsu",
    "country": "JP",
    "geo:lat": 31.35,
    "geo:lon": 131.25,
    "dcterms:modified": "2015-10-22T17:02:29+00:00"
  },
  {
    "ssc_id": "SSC-aburr",
    "psmsl": "130",
    "sonel_gps": "779",
    "sonel_tg": "2210",
    "name": "Aburatsubo",
    "country": "JP",
    "geo:lat": 35.16,
    "geo:lon": 139.62,
    "dcterms:modified": "2015-10-22T17:02:29+00:00"
  },
  {
    "ssc_id": "SSC-abus",
    "psmsl": "1688",
    "name": "Abu Safah",
    "country": "SA",
    "geo:lat": 26.95,
    "geo:lon": 50.5,
    "dcterms:modified": "2015-10-22T17:02:29+00:00"
  },
  {
    "ssc_id": "SSC-acaj",
    "ioc": "acaj",
    "ptwc": "acaj",
    "gloss": "182",
    "uhslc": "82",
    "psmsl": [
      "1011",
      "1302"
    ],
    "sonel_tg": "2859",
    "name": "Acajutla",
    "country": "SV",
    "geo:lat": 13.57,
    "geo:lon": -89.84,
    "dcterms:modified": "2015-10-22T17:02:29+00:00"
  },
  {
    "ssc_id": "SSC-acap",
    "ioc": [
      "acap",
      "acap2",
      "acya"
    ],
    "ptwc": [
      "acap",
      "acp2",
      "acya"
    ],
    "gloss": "267",
    "uhslc": "316",
    "psmsl": "686",
    "sonel_gps": "2279",
    "sonel_tg": "2280",
    "name": "Acapulco",
    "country": "MX",
    "geo:lat": 16.83,
    "geo:lon": -99.92,
    "dcterms:modified": "2015-10-22T17:02:29+00:00"
  },
  {
    "ssc_id": "SSC-accr",
    "psmsl": "242",
    "name": "Accra",
    "country": "GH",
    "geo:lat": 5.53,
    "geo:lon": -0.2,
    "dcterms:modified": "2015-10-22T17:02:29+00:00"
  },
  {
    "ssc_id": "SSC-acnj",
    "ioc": [
      "acnj",
      "acnj2"
    ],
    "ptwc": "acnj",
    "gloss": "220",
    "uhslc": "264",
    "psmsl": "180",
    "sonel_gps": "2923",
    "sonel_tg": "2876",
    "name": "Atlantic City",
    "country": "US",
    "geo:lat": 39.35,
    "geo:lon": -74.42,
    "dcterms:modified": "2015-10-22T17:02:29+00:00"
  },
  {
    "ssc_id": "SSC-adak",
    "ioc": [
      "adak",
      "adak2"
    ],
    "ptwc": "adak",
    "gloss": "302",
    "uhslc": "40",
    "psmsl": "487",
    "sonel_gps": "2667",
    "sonel_tg": "2666",
    "name": "Adak",
    "country": "US",
    "geo:lat": 51.86,
    "geo:lon": -176.63,
    "dcterms:modified": "2015-10-22T17:02:29+00:00"
  },
  {
    "ssc_id": "SSC-aden",
    "ioc": "aden",
    "ptwc": "aden",
    "gloss": "3",
    "uhslc": "172",
    "psmsl": "44",
    "sonel_tg": "2790",
    "name": "Aden",
    "country": "YE",
    "geo:lat": 12.79,
    "geo:lon": 44.97,
    "dcterms:modified": "2015-10-22T17:02:29+00:00"
  },
  {
    "ssc_id": "SSC-agal",
    "ioc": "agal",
    "ptwc": "agal",
    "name": "Agalega",
    "country": "MU",
    "geo:lat": -10.35,
    "geo:lon": 56.59,
    "dcterms:modified": "2015-10-22T17:02:29+00:00"
  },
  {
    "ssc_id": "SSC-agua",
    "ioc": "agua",
    "ptwc": "agua",
    "uhslc": "263",
    "psmsl": "2121",
    "sonel_gps": [
      "3039",
      "3040",
      "3041",
      "3042"
    ],
    "sonel_tg": "3038",
    "name": "Aguadilla",
    "country": "US",
    "geo:lat": 18.45,
    "geo:lon": -67.17,
    "dcterms:modified": "2015-10-22T17:02:29+00:00"
  },
  {
    "ssc_id": "SSC-aigu",
    "sonel_gps": "3476",
    "sonel_tg": "3475",
    "name": "l'Aiguillon sur Mer",
    "country": "FR",
    "geo:lat": 46.34,
    "geo:lon": -1.32,
    "dcterms:modified": "2015-10-22T17:02:29+00:00"
  },
  {
    "ssc_id": "SSC-aina",
    "psmsl": "342",
    "name": "Ainazi (Hainasch)",
    "country": "LV",
    "geo:lat": 57.88,
    "geo:lon": 24.33,
    "dcterms:modified": "2015-10-22T17:02:29+00:00"
  },
  {
    "ssc_id": "SSC-aion",
    "psmsl": "730",
    "name": "Aion",
    "country": "RU",
    "geo:lat": 69.93,
    "geo:lon": 167.98,
    "dcterms:modified": "2015-10-22T17:02:29+00:00"
  },
  {
    "ssc_id": "SSC-aira",
    "sonel_gps": "3351",
    "name": "Aira",
    "country": "JP",
    "geo:lat": 31.82,
    "geo:lon": 130.6,
    "dcterms:modified": "2015-10-22T17:02:29+00:00"
  },
  {
    "ssc_id": "SSC-ajac",
    "ioc": [
      "ajac",
      "ajac2"
    ],
    "ptwc": "ajac",
    "psmsl": "1929",
    "sonel_gps": [
      "3197",
      "619"
    ],
    "sonel_tg": "1719",
    "name": "Ajaccio",
    "country": "FR",
    "geo:lat": 41.92,
    "geo:lon": 8.76,
    "dcterms:modified": "2015-10-22T17:02:29+00:00"
  },
  {
    "ssc_id": "SSC-akko",
    "psmsl": "2218",
    "name": "Akko",
    "country": "IL",
    "geo:lat": 32.92,
    "geo:lon": 35.07,
    "dcterms:modified": "2015-10-22T17:02:29+00:00"
  },
  {
    "ssc_id": "SSC-aksa",
    "psmsl": "2013",
    "name": "Aksaz",
    "country": "TR",
    "geo:lat": 36.84,
    "geo:lon": 28.4,
    "dcterms:modified": "2015-10-22T17:02:29+00:00"
  },
  {
    "ssc_id": "SSC-akun",
    "psmsl": "1265",
    "sonel_gps": "794",
    "sonel_tg": "2119",
    "name": "Akune",
    "country": "JP",
    "geo:lat": 32.02,
    "geo:lon": 130.19,
    "dcterms:modified": "2015-10-22T17:02:29+00:00"
  },
  {
    "ssc_id": "SSC-alak",
    "ioc": [
      "alak",
      "alak2"
    ],
    "ptwc": "alak",
    "name": "Alitak",
    "country": "US",
    "geo:lat": 56.9,
    "geo:lon": -154.25,
    "dcterms:modified": "2015-10-22T17:02:29+00:00"
  },
  {
    "ssc_id": "SSC-alam",
    "ioc": [
      "alam",
      "alam2"
    ],
    "ptwc": "alam",
    "psmsl": "437",
    "sonel_gps": "3319",
    "sonel_tg": "3318",
    "name": "Alameda",
    "country": "US",
    "geo:lat": 37.77,
    "geo:lon": -122.3,
    "dcterms:modified": "2015-10-22T17:02:29+00:00"
  },
  {
    "ssc_id": "SSC-alamn",
    "psmsl": "717",
    "name": "Alamitos Bay Entrance",
    "country": "US",
    "geo:lat": 33.75,
    "geo:lon": -118.12,
    "dcterms:modified": "2015-10-22T17:02:29+00:00"
  },
  {
    "ssc_id": "SSC-alba",
    "psmsl": [
      "957",
      "965"
    ],
    "sonel_gps": "3236",
    "sonel_tg": "3235",
    "name": "Albany",
    "country": "AU",
    "geo:lat": -35.03,
    "geo:lon": 117.89,
    "dcterms:modified": "2015-10-22T17:02:29+00:00"
  },
  {
    "ssc_id": "SSC-albak",
    "psmsl": "1536",
    "name": "Albany",
    "country": "US",
    "geo:lat": 42.65,
    "geo:lon": -73.75,
    "dcterms:modified": "2015-10-22T17:02:29+00:00"
  },
  {
    "ssc_id": "SSC-albu",
    "ioc": "albu",
    "ptwc": "albu",
    "name": "Albufeira",
    "country": "PT",
    "geo:lat": 37.08,
    "geo:lon": 8.26,
    "dcterms:modified": "2015-10-22T17:02:29+00:00"
  },
  {
    "ssc_id": "SSC-alcu",
    "ioc": "alcu",
    "psmsl": "2063",
    "name": "Alcudia",
    "country": "ES",
    "geo:lat": 39.87,
    "geo:lon": 3.12,
    "dcterms:modified": "2015-10-22T17:02:29+00:00"
  },
  {
    "ssc_id": "SSC-alda",
    "psmsl": "1415",
    "name": "Aldabra",
    "country": "SC",
    "geo:lat": -9.4,
    "geo:lon": 46.22,
    "dcterms:modified": "2015-10-22T17:02:29+00:00"
  },
  {
    "ssc_id": "SSC-aler",
    "ioc": "aler",
    "gloss": "333",
    "uhslc": "836",
    "psmsl": "1110",
    "sonel_gps": "625",
    "sonel_tg": "2108",
    "name": "Alert",
    "country": "CA",
    "geo:lat": 82.49,
    "geo:lon": -62.32,
    "dcterms:modified": "2015-10-22T17:02:29+00:00"
  },
  {
    "ssc_id": "SSC-alerc",
    "psmsl": "554",
    "sonel_gps": "3200",
    "sonel_tg": "3199",
    "name": "Alert Bay",
    "country": "CA",
    "geo:lat": 50.58,
    "geo:lon": -126.95,
    "dcterms:modified": "2015-10-22T17:02:29+00:00"
  },
  {
    "ssc_id": "SSC-ales",
    "psmsl": "509",
    "name": "Alesund",
    "country": "NO",
    "geo:lat": 62.47,
    "geo:lon": 6.15,
    "dcterms:modified": "2015-10-22T17:02:29+00:00"
  },
  {
    "ssc_id": "SSC-alex",
    "ioc": "alex",
    "ptwc": "alex",
    "gloss": "349",
    "uhslc": "807",
    "psmsl": [
      "2088",
      "503"
    ],
    "sonel_gps": [
      "2006",
      "933"
    ],
    "sonel_tg": [
      "2206",
      "3010"
    ],
    "name": "Alexandria",
    "country": "EG",
    "geo:lat": 31.21,
    "geo:lon": 29.92,
    "dcterms:modified": "2015-10-22T17:02:29+00:00"
  },
  {
    "ssc_id": "SSC-alexd",
    "psmsl": "349",
    "name": "Alexandrovsk",
    "country": "RU",
    "geo:lat": 50.92,
    "geo:lon": 142.2,
    "dcterms:modified": "2015-10-22T17:02:29+00:00"
  },
  {
    "ssc_id": "SSC-alexf",
    "psmsl": "1238",
    "name": "Alexandroupolis",
    "country": "GR",
    "geo:lat": 40.84,
    "geo:lon": 25.88,
    "dcterms:modified": "2015-10-22T17:02:29+00:00"
  },
  {
    "ssc_id": "SSC-alge",
    "ioc": "alge",
    "ptwc": "alge",
    "sonel_gps": "3373",
    "sonel_tg": "3464",
    "name": "Algeciras",
    "country": "ES",
    "geo:lat": 36.18,
    "geo:lon": -5.4,
    "dcterms:modified": "2015-10-22T17:02:29+00:00"
  },
  {
    "ssc_id": "SSC-algo",
    "sonel_gps": "622",
    "name": "Algo Cacs-acp",
    "country": "CA",
    "geo:lat": 45.96,
    "geo:lon": -78.07,
    "dcterms:modified": "2015-10-22T17:02:29+00:00"
  },
  {
    "ssc_id": "SSC-alic",
    "psmsl": [
      "208",
      "960"
    ],
    "sonel_gps": "620",
    "sonel_tg": [
      "2212",
      "2744"
    ],
    "name": "Alicantei",
    "country": "ES",
    "geo:lat": 38.33,
    "geo:lon": -0.48,
    "dcterms:modified": "2015-10-22T17:02:29+00:00"
  },
  {
    "ssc_id": "SSC-alicg",
    "sonel_gps": "623",
    "name": "Alice Springs Au012",
    "country": "AU",
    "geo:lat": -23.67,
    "geo:lon": 133.88,
    "dcterms:modified": "2015-10-22T17:02:29+00:00"
  },
  {
    "ssc_id": "SSC-alme",
    "ioc": "alme",
    "psmsl": [
      "1455",
      "2056"
    ],
    "sonel_gps": [
      "3461",
      "624"
    ],
    "sonel_tg": [
      "2193",
      "2395"
    ],
    "name": "Almeria",
    "country": "ES",
    "geo:lat": 36.83,
    "geo:lon": -2.48,
    "dcterms:modified": "2015-10-22T17:02:29+00:00"
  },
  {
    "ssc_id": "SSC-almi",
    "psmsl": "858",
    "name": "Almirante Brown",
    "country": "AQ",
    "geo:lat": -64.9,
    "geo:lon": -62.87,
    "dcterms:modified": "2015-10-22T17:02:29+00:00"
  },
  {
    "ssc_id": "SSC-alot",
    "gloss": "63",
    "uhslc": "69",
    "psmsl": [
      "1607",
      "1616"
    ],
    "sonel_tg": "2819",
    "name": "Alotau",
    "country": "PG",
    "geo:lat": -10.32,
    "geo:lon": 150.45,
    "dcterms:modified": "2015-10-22T17:02:29+00:00"
  },
  {
    "ssc_id": "SSC-alva",
    "ioc": "alva",
    "psmsl": "768",
    "name": "Alvarado",
    "country": "MX",
    "geo:lat": 18.77,
    "geo:lon": -95.77,
    "dcterms:modified": "2015-10-22T17:02:29+00:00"
  },
  {
    "ssc_id": "SSC-amal",
    "ioc": [
      "amal",
      "amal2"
    ],
    "ptwc": "amal",
    "uhslc": "255",
    "psmsl": "1393",
    "sonel_gps": [
      "1899",
      "2664"
    ],
    "sonel_tg": "2663",
    "name": "Charlotte-Amalie",
    "country": "US",
    "geo:lat": 18.33,
    "geo:lon": -64.92,
    "dcterms:modified": "2015-10-22T17:02:29+00:00"
  },
  {
    "ssc_id": "SSC-amas",
    "psmsl": "1919",
    "name": "Amasra",
    "country": "TR",
    "geo:lat": 41.43,
    "geo:lon": 32.23,
    "dcterms:modified": "2015-10-22T17:02:29+00:00"
  },
  {
    "ssc_id": "SSC-amba",
    "psmsl": "604",
    "name": "Ambarchik",
    "country": "RU",
    "geo:lat": 69.62,
    "geo:lon": 162.3,
    "dcterms:modified": "2015-10-22T17:02:29+00:00"
  },
  {
    "ssc_id": "SSC-ambo",
    "ioc": "ambon",
    "ptwc": "ambo",
    "gloss": "68",
    "uhslc": "133",
    "psmsl": [
      "1815",
      "347"
    ],
    "sonel_gps": "3216",
    "sonel_tg": "2821",
    "name": "Ambon",
    "country": "ID",
    "geo:lat": -3.68,
    "geo:lon": 128.18,
    "dcterms:modified": "2015-10-22T17:02:29+00:00"
  },
  {
    "ssc_id": "SSC-amcl",
    "sonel_gps": "626",
    "name": "Alternate Master Clock (utc Calibrated)",
    "country": "US",
    "geo:lat": 38.8,
    "geo:lon": -104.53,
    "dcterms:modified": "2015-10-22T17:20:30+00:00"
  },
  {
    "ssc_id": "SSC-amde",
    "psmsl": "599",
    "name": "Amderma",
    "country": "RU",
    "geo:lat": 69.75,
    "geo:lon": 61.7,
    "dcterms:modified": "2015-10-22T17:02:29+00:00"
  },
  {
    "ssc_id": "SSC-amer",
    "psmsl": "631",
    "name": "American River",
    "country": "AU",
    "geo:lat": -35.8,
    "geo:lon": 137.77,
    "dcterms:modified": "2015-10-22T17:02:29+00:00"
  },
  {
    "ssc_id": "SSC-amhe",
    "psmsl": "746",
    "name": "Amherst",
    "country": "MM",
    "geo:lat": 16.08,
    "geo:lon": 97.57,
    "dcterms:modified": "2015-10-22T17:02:29+00:00"
  },
  {
    "ssc_id": "SSC-amma",
    "gloss": "228",
    "uhslc": "297",
    "psmsl": "1765",
    "sonel_gps": "2207",
    "sonel_tg": "2483",
    "name": "Ammassalik",
    "country": "DK",
    "geo:lat": 65.5,
    "geo:lon": -37,
    "dcterms:modified": "2015-10-22T17:02:29+00:00"
  },
  {
    "ssc_id": "SSC-amru",
    "psmsl": "1036",
    "name": "Amrum (Wittduen)",
    "country": "DE",
    "geo:lat": 54.62,
    "geo:lon": 8.38,
    "dcterms:modified": "2015-10-22T17:02:29+00:00"
  },
  {
    "ssc_id": "SSC-amua",
    "psmsl": "706",
    "name": "Amuay",
    "country": "VE",
    "geo:lat": 11.75,
    "geo:lon": -70.22,
    "dcterms:modified": "2015-10-22T17:02:29+00:00"
  },
  {
    "ssc_id": "SSC-anab",
    "psmsl": "1780",
    "name": "Anabar",
    "country": "RU",
    "geo:lat": 73.22,
    "geo:lon": 113.5,
    "dcterms:modified": "2015-10-22T17:02:29+00:00"
  },
  {
    "ssc_id": "SSC-anca",
    "ioc": "AN15",
    "psmsl": [
      "101",
      "2098"
    ],
    "sonel_gps": "3153",
    "sonel_tg": [
      "3151",
      "3152"
    ],
    "name": "Ancona",
    "country": "IT",
    "geo:lat": 43.62,
    "geo:lon": 13.51,
    "dcterms:modified": "2015-10-22T17:30:53+00:00"
  },
  {
    "ssc_id": "SSC-anch",
    "ioc": [
      "anch",
      "anch2"
    ],
    "ptwc": "anch",
    "psmsl": "1067",
    "sonel_gps": "1897",
    "sonel_tg": "2104",
    "name": "Anchorage",
    "country": "US",
    "geo:lat": 61.24,
    "geo:lon": -149.89,
    "dcterms:modified": "2015-10-22T17:02:29+00:00"
  },
  {
    "ssc_id": "SSC-ancu",
    "ioc": [
      "ancu",
      "ancu2"
    ],
    "ptwc": "ancu",
    "name": "Ancud",
    "country": "CL",
    "geo:lat": -41.87,
    "geo:lon": -73.83,
    "dcterms:modified": "2015-10-22T17:02:29+00:00"
  },
  {
    "ssc_id": "SSC-ande",
    "ioc": "ande",
    "gloss": "322",
    "uhslc": "800",
    "psmsl": "425",
    "sonel_gps": "3573",
    "sonel_tg": "2263",
    "name": "Andenes",
    "country": "NO",
    "geo:lat": 69.32,
    "geo:lon": 16.15,
    "dcterms:modified": "2015-10-22T17:02:29+00:00"
  },
  {
    "ssc_id": "SSC-andr",
    "psmsl": "646",
    "name": "Andreia (Andreia Ostrov)",
    "country": "RU",
    "geo:lat": 76.8,
    "geo:lon": 110.75,
    "dcterms:modified": "2015-10-22T17:02:29+00:00"
  },
  {
    "ssc_id": "SSC-anew",
    "uhslc": "48",
    "psmsl": "1227",
    "name": "Anewa Bay",
    "country": "PG",
    "geo:lat": -6.18,
    "geo:lon": 155.88,
    "dcterms:modified": "2015-10-22T17:02:29+00:00"
  },
  {
    "ssc_id": "SSC-angl",
    "psmsl": "1376",
    "name": "Angler Bank",
    "country": "SG",
    "geo:lat": 1.35,
    "geo:lon": 104.03,
    "dcterms:modified": "2015-10-22T17:02:29+00:00"
  },
  {
    "ssc_id": "SSC-angr",
    "uhslc": "215",
    "psmsl": "380",
    "sonel_gps": "2504",
    "sonel_tg": "2505",
    "name": "Angra Heroismo",
    "country": "PT",
    "geo:lat": 38.65,
    "geo:lon": -27.23,
    "dcterms:modified": "2015-10-22T17:02:29+00:00"
  },
  {
    "ssc_id": "SSC-anhe",
    "psmsl": "1699",
    "name": "Anheung",
    "country": "KR",
    "geo:lat": 36.67,
    "geo:lon": 126.13,
    "dcterms:modified": "2015-10-22T17:02:29+00:00"
  },
  {
    "ssc_id": "SSC-anka",
    "psmsl": [
      "1009",
      "1817"
    ],
    "name": "Luka Koper",
    "country": "SI",
    "geo:lat": 45.57,
    "geo:lon": 13.75,
    "dcterms:modified": "2015-10-22T17:02:29+00:00"
  },
  {
    "ssc_id": "SSC-anna",
    "ptwc": "anmd",
    "psmsl": "311",
    "sonel_gps": [
      "1874",
      "1875",
      "3522",
      "896"
    ],
    "sonel_tg": [
      "2372",
      "2767"
    ],
    "name": "Annapolis",
    "country": "US",
    "geo:lat": 38.98,
    "geo:lon": -76.48,
    "dcterms:modified": "2015-10-22T17:02:29+00:00"
  },
  {
    "ssc_id": "SSC-ansa",
    "psmsl": "1922",
    "name": "Ansan",
    "country": "KR",
    "geo:lat": 37.19,
    "geo:lon": 126.65,
    "dcterms:modified": "2015-10-22T17:02:29+00:00"
  },
  {
    "ssc_id": "SSC-anta",
    "psmsl": [
      "1681",
      "400"
    ],
    "sonel_gps": "2019",
    "sonel_tg": "2158",
    "name": "Antalya",
    "country": "TR",
    "geo:lat": 36.88,
    "geo:lon": 30.7,
    "dcterms:modified": "2015-10-22T17:02:29+00:00"
  },
  {
    "ssc_id": "SSC-antc",
    "sonel_gps": "2406",
    "name": "Antuco",
    "country": "CL",
    "geo:lat": -37.34,
    "geo:lon": -71.53,
    "dcterms:modified": "2015-10-22T17:02:29+00:00"
  },
  {
    "ssc_id": "SSC-antf",
    "ptwc": "dch2",
    "name": "DART4G_Antofagasta",
    "country": "CL",
    "geo:lat": -23.2,
    "geo:lon": -72,
    "dcterms:modified": "2015-10-22T17:21:25+00:00"
  },
  {
    "ssc_id": "SSC-anti",
    "psmsl": "1128",
    "name": "Antipaiuta",
    "country": "RU",
    "geo:lat": 69.08,
    "geo:lon": 76.85,
    "dcterms:modified": "2015-10-22T17:02:29+00:00"
  },
  {
    "ssc_id": "SSC-antil",
    "psmsl": "1383",
    "sonel_gps": "3548",
    "sonel_tg": "3547",
    "name": "Antifer",
    "country": "FR",
    "geo:lat": 49.65,
    "geo:lon": 0.15,
    "dcterms:modified": "2015-10-22T17:02:29+00:00"
  },
  {
    "ssc_id": "SSC-anto",
    "ioc": [
      "anto",
      "anto2"
    ],
    "ptwc": "anto",
    "gloss": "174",
    "uhslc": "80",
    "psmsl": [
      "510",
      "511"
    ],
    "sonel_gps": "2608",
    "sonel_tg": [
      "2607",
      "2753"
    ],
    "name": "Antofagasta",
    "country": "CL",
    "geo:lat": -23.65,
    "geo:lon": -70.4,
    "dcterms:modified": "2015-10-22T17:02:29+00:00"
  },
  {
    "ssc_id": "SSC-antoe",
    "uhslc": "191",
    "psmsl": "1986",
    "name": "Antonio Enes",
    "country": "MZ",
    "geo:lat": -16.23,
    "geo:lon": 39.9,
    "dcterms:modified": "2015-10-22T17:02:29+00:00"
  },
  {
    "ssc_id": "SSC-antw",
    "psmsl": "293",
    "name": "Antwerpen (Anvers)",
    "country": "BE",
    "geo:lat": 51.23,
    "geo:lon": 4.42,
    "dcterms:modified": "2015-10-22T17:02:29+00:00"
  },
  {
    "ssc_id": "SSC-anzio",
    "ioc": "AZ42",
    "psmsl": "2136",
    "name": "Anzio",
    "country": "IT",
    "geo:lat": 41.45,
    "geo:lon": 12.63,
    "dcterms:modified": "2015-10-22T17:20:38+00:00"
  },
  {
    "ssc_id": "SSC-aomo",
    "psmsl": "1092",
    "name": "Aomori",
    "country": "JP",
    "geo:lat": 40.84,
    "geo:lon": 140.76,
    "dcterms:modified": "2015-10-22T17:02:29+00:00"
  },
  {
    "ssc_id": "SSC-apfl",
    "ioc": [
      "apfl",
      "apfl2"
    ],
    "ptwc": "apfl",
    "uhslc": "760",
    "psmsl": "1193",
    "name": "Apalachicola",
    "country": "US",
    "geo:lat": 29.73,
    "geo:lon": -84.98,
    "dcterms:modified": "2015-10-22T17:02:29+00:00"
  },
  {
    "ssc_id": "SSC-apla",
    "ioc": [
      "apla",
      "apla2"
    ],
    "ptwc": "apla",
    "name": [
      "AmeradaPass",
      "LA"
    ],
    "country": "US",
    "geo:lat": 29.45,
    "geo:lon": -91.34,
    "dcterms:modified": "2015-10-22T17:02:29+00:00"
  },
  {
    "ssc_id": "SSC-arab",
    "psmsl": "1649",
    "name": "Arabiyah Island",
    "country": "SA",
    "geo:lat": 27.78,
    "geo:lon": 50.18,
    "dcterms:modified": "2015-10-22T17:02:29+00:00"
  },
  {
    "ssc_id": "SSC-arac",
    "ioc": [
      "arac",
      "aracS"
    ],
    "ptwc": "arec",
    "uhslc": "735",
    "psmsl": "2213",
    "name": "Arecibo",
    "country": "PR",
    "geo:lat": 18.48,
    "geo:lon": -66.7,
    "dcterms:modified": "2015-10-22T17:02:29+00:00"
  },
  {
    "ssc_id": "SSC-aracy",
    "psmsl": "191",
    "name": [
      "Araceli",
      "DumarinIsland"
    ],
    "country": "PH",
    "geo:lat": 10.58,
    "geo:lon": 119.98,
    "dcterms:modified": "2015-10-22T17:02:29+00:00"
  },
  {
    "ssc_id": "SSC-arca",
    "ioc": "arca",
    "psmsl": "1918",
    "sonel_gps": "3191",
    "sonel_tg": "1724",
    "name": "Arcachon Eyrac",
    "country": "FR",
    "geo:lat": 44.66,
    "geo:lon": -1.16,
    "dcterms:modified": "2015-10-22T17:02:29+00:00"
  },
  {
    "ssc_id": "SSC-ardr",
    "psmsl": "632",
    "name": "Ardrossan",
    "country": "AU",
    "geo:lat": -34.43,
    "geo:lon": 137.92,
    "dcterms:modified": "2015-10-22T17:02:29+00:00"
  },
  {
    "ssc_id": "SSC-aren",
    "ioc": [
      "aren",
      "aren2"
    ],
    "ptwc": "aren",
    "uhslc": "573",
    "psmsl": "2125",
    "sonel_gps": "3026",
    "sonel_tg": "3025",
    "name": "Arena Cove",
    "country": "US",
    "geo:lat": 38.91,
    "geo:lon": -123.7,
    "dcterms:modified": "2015-10-22T17:02:29+00:00"
  },
  {
    "ssc_id": "SSC-arenu",
    "psmsl": "67",
    "name": "Arendal",
    "country": "NO",
    "geo:lat": 58.45,
    "geo:lon": 8.78,
    "dcterms:modified": "2015-10-22T17:02:29+00:00"
  },
  {
    "ssc_id": "SSC-areq",
    "sonel_gps": "628",
    "name": "Arequipa Laser Station",
    "country": "PE",
    "geo:lat": -16.47,
    "geo:lon": -71.49,
    "dcterms:modified": "2015-10-22T17:02:29+00:00"
  },
  {
    "ssc_id": "SSC-arge",
    "psmsl": "1321",
    "name": "Argentia",
    "country": "CA",
    "geo:lat": 47.3,
    "geo:lon": -53.98,
    "dcterms:modified": "2015-10-22T17:02:29+00:00"
  },
  {
    "ssc_id": "SSC-aric",
    "ioc": [
      "aric",
      "aric2"
    ],
    "ptwc": "aric",
    "uhslc": "83",
    "psmsl": [
      "1554",
      "618"
    ],
    "sonel_gps": [
      "2610",
      "3159"
    ],
    "sonel_tg": "2609",
    "name": "Arica",
    "country": "CL",
    "geo:lat": -18.48,
    "geo:lon": -70.32,
    "dcterms:modified": "2015-10-22T17:02:29+00:00"
  },
  {
    "ssc_id": "SSC-arin",
    "psmsl": "2049",
    "sonel_gps": "3137",
    "sonel_tg": "3136",
    "name": "Arinaga",
    "country": "ES",
    "geo:lat": 27.85,
    "geo:lon": -15.4,
    "dcterms:modified": "2015-10-22T17:02:29+00:00"
  },
  {
    "ssc_id": "SSC-arko",
    "psmsl": "56",
    "name": "Arkona",
    "country": "DE",
    "geo:lat": 54.68,
    "geo:lon": 13.43,
    "dcterms:modified": "2015-10-22T17:02:29+00:00"
  },
  {
    "ssc_id": "SSC-army",
    "psmsl": "1728",
    "name": [
      "ArmyDepot",
      "CooperR."
    ],
    "country": "US",
    "geo:lat": 32.91,
    "geo:lon": -79.95,
    "dcterms:modified": "2015-10-22T17:02:29+00:00"
  },
  {
    "ssc_id": "SSC-arna",
    "psmsl": "1958",
    "name": "Arnavutkoy",
    "country": "TR",
    "geo:lat": 41.07,
    "geo:lon": 29.05,
    "dcterms:modified": "2015-10-22T17:02:29+00:00"
  },
  {
    "ssc_id": "SSC-aror",
    "psmsl": "906",
    "name": "Arorae",
    "country": "KI",
    "geo:lat": -2.62,
    "geo:lon": 176.83,
    "dcterms:modified": "2015-10-22T17:02:29+00:00"
  },
  {
    "ssc_id": "SSC-arre",
    "ioc": "arre",
    "uhslc": "205",
    "psmsl": [
      "2066",
      "593"
    ],
    "name": "Arrecife",
    "country": "ES",
    "geo:lat": 28.97,
    "geo:lon": -13.53,
    "dcterms:modified": "2015-10-22T17:02:29+00:00"
  },
  {
    "ssc_id": "SSC-arrec",
    "uhslc": "205",
    "psmsl": [
      "1362",
      "1710",
      "943"
    ],
    "sonel_gps": "3133",
    "sonel_tg": "3132",
    "name": "Arrecife-a",
    "country": "ES",
    "geo:lat": 28.95,
    "geo:lon": -13.57,
    "dcterms:modified": "2015-10-22T17:14:20+00:00"
  },
  {
    "ssc_id": "SSC-arti",
    "psmsl": "1729",
    "name": "Artigas",
    "country": "AQ",
    "geo:lat": -62.18,
    "geo:lon": -58.87,
    "dcterms:modified": "2015-10-22T17:02:29+00:00"
  },
  {
    "ssc_id": "SSC-artu",
    "sonel_gps": "629",
    "name": "Arti",
    "country": "RU",
    "geo:lat": 56.43,
    "geo:lon": 58.56,
    "dcterms:modified": "2015-10-22T17:02:29+00:00"
  },
  {
    "ssc_id": "SSC-asam",
    "psmsl": "721",
    "sonel_gps": "774",
    "sonel_tg": "2305",
    "name": "Asamushi",
    "country": "JP",
    "geo:lat": 40.9,
    "geo:lon": 140.86,
    "dcterms:modified": "2015-10-22T17:02:29+00:00"
  },
  {
    "ssc_id": "SSC-ascen",
    "ioc": "ascen",
    "ptwc": "ascn",
    "gloss": "263",
    "uhslc": "291",
    "psmsl": "1831",
    "sonel_gps": "630",
    "sonel_tg": "1971",
    "name": "Ascension",
    "country": "GB",
    "geo:lat": -7.92,
    "geo:lon": -14.42,
    "dcterms:modified": "2015-10-22T17:02:29+00:00"
  },
  {
    "ssc_id": "SSC-ashd",
    "ioc": "ashd",
    "psmsl": [
      "2219",
      "855"
    ],
    "sonel_gps": "2021",
    "sonel_tg": [
      "2180",
      "3502"
    ],
    "name": "Ashdod Port",
    "country": "IL",
    "geo:lat": 31.83,
    "geo:lon": 34.64,
    "dcterms:modified": "2015-10-22T17:02:29+00:00"
  },
  {
    "ssc_id": "SSC-ashk",
    "ioc": "ashk",
    "ptwc": "ashk",
    "name": "Ashkhara",
    "country": "OM",
    "geo:lat": 21.85,
    "geo:lon": 59.57,
    "dcterms:modified": "2015-10-22T17:02:29+00:00"
  },
  {
    "ssc_id": "SSC-askl",
    "ioc": "askl",
    "psmsl": "2220",
    "name": "Ashkelon",
    "country": "IL",
    "geo:lat": 31.63,
    "geo:lon": 34.49,
    "dcterms:modified": "2015-10-22T17:02:29+00:00"
  },
  {
    "ssc_id": "SSC-asto",
    "ioc": [
      "asto",
      "asto2"
    ],
    "ptwc": "asto",
    "uhslc": "572",
    "psmsl": "265",
    "sonel_gps": [
      "2093",
      "2690",
      "2691",
      "675"
    ],
    "sonel_tg": "2176",
    "name": "Astoria",
    "country": "US",
    "geo:lat": 46.21,
    "geo:lon": -123.77,
    "dcterms:modified": "2015-10-22T17:02:29+00:00"
  },
  {
    "ssc_id": "SSC-atic",
    "ioc": "atic",
    "ptwc": "atic",
    "name": "Atico",
    "country": "PE",
    "geo:lat": -16.23,
    "geo:lon": -73.69,
    "dcterms:modified": "2015-10-22T17:02:29+00:00"
  },
  {
    "ssc_id": "SSC-atka",
    "ioc": "atka",
    "ptwc": "atka",
    "name": "Atka",
    "country": "US",
    "geo:lat": 52.23,
    "geo:lon": -174.17,
    "dcterms:modified": "2015-10-22T17:02:29+00:00"
  },
  {
    "ssc_id": "SSC-auct",
    "ioc": "auct",
    "ptwc": "auct",
    "gloss": "127",
    "uhslc": "70",
    "psmsl": [
      "150",
      "217"
    ],
    "sonel_gps": [
      "2545",
      "632",
      "932"
    ],
    "sonel_tg": [
      "2336",
      "2745"
    ],
    "name": "Auckland-Waitemata Hbr.",
    "country": "NZ",
    "geo:lat": -36.51,
    "geo:lon": 174.46,
    "dcterms:modified": "2015-10-22T17:02:29+00:00"
  },
  {
    "ssc_id": "SSC-avei",
    "psmsl": "1402",
    "name": "Aveiro",
    "country": "PT",
    "geo:lat": 40.65,
    "geo:lon": -8.75,
    "dcterms:modified": "2015-10-22T17:02:29+00:00"
  },
  {
    "ssc_id": "SSC-avon",
    "ioc": "avon",
    "psmsl": [
      "2011",
      "257"
    ],
    "name": "Avonmouth Portbury",
    "country": "GB",
    "geo:lat": 51.5,
    "geo:lon": -2.73,
    "dcterms:modified": "2015-10-22T17:02:29+00:00"
  },
  {
    "ssc_id": "SSC-awas",
    "psmsl": "1093",
    "name": "Awa Sima",
    "country": "JP",
    "geo:lat": 38.47,
    "geo:lon": 139.25,
    "dcterms:modified": "2015-10-22T17:02:29+00:00"
  },
  {
    "ssc_id": "SSC-ayuk",
    "psmsl": "131",
    "name": "Ayukawa",
    "country": "JP",
    "geo:lat": 38.3,
    "geo:lon": 141.51,
    "dcterms:modified": "2015-10-22T17:02:29+00:00"
  },
  {
    "ssc_id": "SSC-bahi",
    "uhslc": "310",
    "psmsl": "1357",
    "sonel_gps": "3595",
    "sonel_tg": "3594",
    "name": "Bahia Los Angeles",
    "country": "MX",
    "geo:lat": 28.97,
    "geo:lon": -113.55,
    "dcterms:modified": "2015-10-22T17:02:29+00:00"
  },
  {
    "ssc_id": "SSC-baie",
    "psmsl": "1218",
    "sonel_gps": "3054",
    "sonel_tg": "3053",
    "name": "Baie Comeau",
    "country": "CA",
    "geo:lat": 49.23,
    "geo:lon": -68.13,
    "dcterms:modified": "2015-10-22T17:02:29+00:00"
  },
  {
    "ssc_id": "SSC-bajo",
    "uhslc": "414",
    "name": "Bajor",
    "country": "ID",
    "geo:lat": -0.68,
    "geo:lon": 117.42,
    "dcterms:modified": "2015-10-22T17:02:29+00:00"
  },
  {
    "ssc_id": "SSC-baka",
    "psmsl": "353",
    "name": "Bakar",
    "country": "HR",
    "geo:lat": 45.3,
    "geo:lon": 14.53,
    "dcterms:modified": "2015-10-22T17:02:29+00:00"
  },
  {
    "ssc_id": "SSC-bake",
    "sonel_gps": "2407",
    "name": "Baker Lake",
    "country": "CA",
    "geo:lat": 64.32,
    "geo:lon": -96,
    "dcterms:modified": "2015-10-22T17:02:29+00:00"
  },
  {
    "ssc_id": "SSC-bala",
    "psmsl": "1976",
    "name": "Balabac",
    "country": "PH",
    "geo:lat": 7.98,
    "geo:lon": 117.07,
    "dcterms:modified": "2015-10-22T17:02:29+00:00"
  },
  {
    "ssc_id": "SSC-balaq",
    "psmsl": "2157",
    "name": [
      "Balanacan",
      "Marinduque"
    ],
    "country": "PH",
    "geo:lat": 13.53,
    "geo:lon": 121.87,
    "dcterms:modified": "2015-10-22T17:02:29+00:00"
  },
  {
    "ssc_id": "SSC-balb",
    "gloss": "168",
    "uhslc": "302",
    "psmsl": "163",
    "sonel_tg": "2855",
    "name": "Balboa",
    "country": "PA",
    "geo:lat": 8.97,
    "geo:lon": -79.6,
    "dcterms:modified": "2015-10-22T17:02:29+00:00"
  },
  {
    "ssc_id": "SSC-bali",
    "uhslc": "411",
    "name": "Balikpapan",
    "country": "ID",
    "geo:lat": -1.27,
    "geo:lon": 116.8,
    "dcterms:modified": "2015-10-22T17:02:29+00:00"
  },
  {
    "ssc_id": "SSC-baliu",
    "psmsl": "2155",
    "name": [
      "Balintang",
      "Quezon",
      "Palawan"
    ],
    "country": "PH",
    "geo:lat": 9.35,
    "geo:lon": 118.13,
    "dcterms:modified": "2015-10-22T17:02:29+00:00"
  },
  {
    "ssc_id": "SSC-ball",
    "ioc": "ball",
    "name": "Ballyglass pier",
    "country": "IE",
    "geo:lat": 54.25,
    "geo:lon": -9.89,
    "dcterms:modified": "2015-10-22T17:02:29+00:00"
  },
  {
    "ssc_id": "SSC-balls",
    "psmsl": "319",
    "name": "Ballina",
    "country": "AU",
    "geo:lat": -28.87,
    "geo:lon": 153.58,
    "dcterms:modified": "2015-10-22T17:02:29+00:00"
  },
  {
    "ssc_id": "SSC-balt",
    "ioc": "balt",
    "ptwc": "balt",
    "gloss": "169",
    "uhslc": "3",
    "psmsl": [
      "1226",
      "1645"
    ],
    "name": "Baltra",
    "country": "EC",
    "geo:lat": -0.43,
    "geo:lon": -90.28,
    "dcterms:modified": "2015-10-22T17:02:29+00:00"
  },
  {
    "ssc_id": "SSC-bama",
    "psmsl": "1189",
    "name": "Bamaga",
    "country": "AU",
    "geo:lat": -10.85,
    "geo:lon": 142.37,
    "dcterms:modified": "2015-10-22T17:02:29+00:00"
  },
  {
    "ssc_id": "SSC-bamd",
    "ioc": [
      "bamd",
      "bamd2"
    ],
    "ptwc": "bamd",
    "psmsl": "148",
    "sonel_gps": [
      "2704",
      "3059"
    ],
    "sonel_tg": "2703",
    "name": "Baltimore",
    "country": "US",
    "geo:lat": 39.27,
    "geo:lon": -76.58,
    "dcterms:modified": "2015-10-22T17:02:29+00:00"
  },
  {
    "ssc_id": "SSC-bame",
    "ioc": [
      "bame",
      "bame2"
    ],
    "ptwc": "bame",
    "psmsl": "525",
    "sonel_gps": "635",
    "sonel_tg": "2353",
    "name": "Bar Harbor",
    "country": "US",
    "geo:lat": 44.39,
    "geo:lon": -68.2,
    "dcterms:modified": "2015-10-22T17:02:29+00:00"
  },
  {
    "ssc_id": "SSC-bamf",
    "ioc": "bamf",
    "psmsl": "1242",
    "sonel_gps": "3023",
    "sonel_tg": "3022",
    "name": "Bamfield",
    "country": "CA",
    "geo:lat": 48.84,
    "geo:lon": -125.14,
    "dcterms:modified": "2015-10-22T17:02:29+00:00"
  },
  {
    "ssc_id": "SSC-bang",
    "ioc": "bang",
    "psmsl": "1856",
    "name": "Bangor",
    "country": "GB",
    "geo:lat": 54.66,
    "geo:lon": -5.67,
    "dcterms:modified": "2015-10-22T17:02:29+00:00"
  },
  {
    "ssc_id": "SSC-bangw",
    "psmsl": "287",
    "name": "Bangkok Bar",
    "country": "TH",
    "geo:lat": 13.45,
    "geo:lon": 100.6,
    "dcterms:modified": "2015-10-22T17:02:29+00:00"
  },
  {
    "ssc_id": "SSC-banj",
    "psmsl": "307",
    "name": "Banjarmasin",
    "country": "ID",
    "geo:lat": -3.3,
    "geo:lon": 114.6,
    "dcterms:modified": "2015-10-22T17:02:29+00:00"
  },
  {
    "ssc_id": "SSC-banl",
    "sonel_gps": "2409",
    "name": "Bangalore",
    "country": "ID",
    "geo:lat": 13.03,
    "geo:lon": 77.51,
    "dcterms:modified": "2015-10-22T17:15:03+00:00"
  },
  {
    "ssc_id": "SSC-bany",
    "psmsl": "1202",
    "name": "Banyuls",
    "country": "FR",
    "geo:lat": 42.48,
    "geo:lon": 3.12,
    "dcterms:modified": "2015-10-22T17:02:29+00:00"
  },
  {
    "ssc_id": "SSC-bara",
    "ioc": "bara",
    "ptwc": "bara",
    "psmsl": "745",
    "sonel_gps": "3554",
    "sonel_tg": "3553",
    "name": "Barahona",
    "country": "DO",
    "geo:lat": 18.21,
    "geo:lon": -71.09,
    "dcterms:modified": "2015-10-22T17:02:29+00:00"
  },
  {
    "ssc_id": "SSC-barag",
    "psmsl": "592",
    "name": "Baracoa",
    "country": "CU",
    "geo:lat": 20.35,
    "geo:lon": -74.5,
    "dcterms:modified": "2015-10-22T17:02:29+00:00"
  },
  {
    "ssc_id": "SSC-barb",
    "ioc": [
      "barb",
      "barb2"
    ],
    "ptwc": "barb",
    "name": "Barbuda",
    "country": "AG",
    "geo:lat": 17.59,
    "geo:lon": -61.82,
    "dcterms:modified": "2015-10-22T17:02:29+00:00"
  },
  {
    "ssc_id": "SSC-barc",
    "ioc": "barc",
    "psmsl": "1811",
    "sonel_gps": "3533",
    "sonel_tg": "3532",
    "name": "Barcelona",
    "country": "ES",
    "geo:lat": 41.34,
    "geo:lon": 2.16,
    "dcterms:modified": "2015-10-22T17:02:29+00:00"
  },
  {
    "ssc_id": "SSC-bare",
    "gloss": "231",
    "psmsl": [
      "541",
      "547"
    ],
    "sonel_tg": "2878",
    "name": "Barentsburg ",
    "country": "RU",
    "geo:lat": 78.07,
    "geo:lon": 14.25,
    "dcterms:modified": "2015-10-22T17:02:29+00:00"
  },
  {
    "ssc_id": "SSC-barii",
    "ioc": "BA05",
    "psmsl": "2075",
    "name": "Bari",
    "country": "IT",
    "geo:lat": 41.14,
    "geo:lon": 16.87,
    "dcterms:modified": "2015-10-22T17:30:59+00:00"
  },
  {
    "ssc_id": "SSC-barm",
    "ioc": "barm",
    "psmsl": "1771",
    "name": "Barmouth",
    "country": "GB",
    "geo:lat": 52.72,
    "geo:lon": -4.05,
    "dcterms:modified": "2015-10-22T17:02:29+00:00"
  },
  {
    "ssc_id": "SSC-barn",
    "ioc": "barn",
    "ptwc": "barn",
    "psmsl": [
      "683",
      "691"
    ],
    "sonel_gps": [
      "2056",
      "2057"
    ],
    "sonel_tg": "2178",
    "name": "Burnie",
    "country": "AU",
    "geo:lat": -41.05,
    "geo:lon": 145.91,
    "dcterms:modified": "2015-10-22T17:02:29+00:00"
  },
  {
    "ssc_id": "SSC-baro",
    "psmsl": "1075",
    "name": "Bar",
    "country": "ME",
    "geo:lat": 42.08,
    "geo:lon": 19.08,
    "dcterms:modified": "2015-10-22T17:22:53+00:00"
  },
  {
    "ssc_id": "SSC-barr",
    "psmsl": [
      "1904",
      "1905",
      "1998"
    ],
    "name": "Barrow",
    "country": "GB",
    "geo:lat": 54.08,
    "geo:lon": -3.2,
    "dcterms:modified": "2015-10-22T17:02:29+00:00"
  },
  {
    "ssc_id": "SSC-bars",
    "psmsl": "2109",
    "sonel_gps": "2077",
    "sonel_tg": "2327",
    "name": "Barseback",
    "country": "SE",
    "geo:lat": 55.76,
    "geo:lon": 12.9,
    "dcterms:modified": "2015-10-22T17:02:29+00:00"
  },
  {
    "ssc_id": "SSC-basr",
    "psmsl": "220",
    "name": "Basrah",
    "country": "IQ",
    "geo:lat": 30.52,
    "geo:lon": 47.85,
    "dcterms:modified": "2015-10-22T17:02:29+00:00"
  },
  {
    "ssc_id": "SSC-bass",
    "ioc": "bass",
    "ptwc": "bass",
    "psmsl": "2004",
    "name": "Basseterre (Coast Guard Base)",
    "country": "KN",
    "geo:lat": 17.29,
    "geo:lon": -62.71,
    "dcterms:modified": "2015-10-22T17:02:29+00:00"
  },
  {
    "ssc_id": "SSC-basst",
    "psmsl": "1967",
    "name": "Bass Harbour",
    "country": "MY",
    "geo:lat": 6.3,
    "geo:lon": 99.78,
    "dcterms:modified": "2015-10-22T17:02:29+00:00"
  },
  {
    "ssc_id": "SSC-bati",
    "psmsl": "144",
    "name": "Batiscan",
    "country": "CA",
    "geo:lat": 46.5,
    "geo:lon": -72.25,
    "dcterms:modified": "2015-10-22T17:02:29+00:00"
  },
  {
    "ssc_id": "SSC-batu",
    "psmsl": "51",
    "name": "Batumi",
    "country": "GE",
    "geo:lat": 41.63,
    "geo:lon": 41.7,
    "dcterms:modified": "2015-10-22T17:02:29+00:00"
  },
  {
    "ssc_id": "SSC-batuu",
    "psmsl": "296",
    "name": [
      "BatuanBay",
      "Tikao"
    ],
    "country": "PH",
    "geo:lat": 12.42,
    "geo:lon": 123.78,
    "dcterms:modified": "2015-10-22T17:02:29+00:00"
  },
  {
    "ssc_id": "SSC-bayg",
    "psmsl": "1727",
    "name": "Bay Gardene",
    "country": "US",
    "geo:lat": 29.6,
    "geo:lon": -89.62,
    "dcterms:modified": "2015-10-22T17:02:29+00:00"
  },
  {
    "ssc_id": "SSC-bbbc",
    "ioc": "bbbc",
    "ptwc": "bbbc",
    "name": "Bella Bella",
    "country": "CA",
    "geo:lat": 52.16,
    "geo:lon": -128.14,
    "dcterms:modified": "2016-03-01T11:51:00+00:00"
  },
  {
    "ssc_id": "SSC-bdto",
    "ioc": "bdto",
    "ptwc": "bdto",
    "name": "Bocas Del Toro",
    "country": "PA",
    "geo:lat": 9.35,
    "geo:lon": -82.26,
    "dcterms:modified": "2015-10-22T17:02:29+00:00"
  },
  {
    "ssc_id": "SSC-beac",
    "psmsl": "304",
    "name": "Beachport",
    "country": "AU",
    "geo:lat": -37.5,
    "geo:lon": 140,
    "dcterms:modified": "2015-10-22T17:02:29+00:00"
  },
  {
    "ssc_id": "SSC-beau",
    "psmsl": "1537",
    "name": "Beaufort",
    "country": "US",
    "geo:lat": 32.43,
    "geo:lon": -80.67,
    "dcterms:modified": "2015-10-22T17:02:29+00:00"
  },
  {
    "ssc_id": "SSC-beca",
    "psmsl": "1798",
    "name": "Becancour",
    "country": "CA",
    "geo:lat": 46.4,
    "geo:lon": -72.38,
    "dcterms:modified": "2015-10-22T17:02:29+00:00"
  },
  {
    "ssc_id": "SSC-beih",
    "uhslc": "636",
    "psmsl": "1408",
    "name": "Beihai",
    "country": "CN",
    "geo:lat": 21.48,
    "geo:lon": 109.08,
    "dcterms:modified": "2015-10-22T17:02:29+00:00"
  },
  {
    "ssc_id": "SSC-beir",
    "psmsl": "1888",
    "name": "Beira",
    "country": "MZ",
    "geo:lat": -19.82,
    "geo:lon": 34.83,
    "dcterms:modified": "2015-10-22T17:02:29+00:00"
  },
  {
    "ssc_id": "SSC-bela",
    "psmsl": "276",
    "name": "Belawan",
    "country": "ID",
    "geo:lat": 3.92,
    "geo:lon": 98.72,
    "dcterms:modified": "2015-10-22T17:02:29+00:00"
  },
  {
    "ssc_id": "SSC-bele",
    "uhslc": "229",
    "psmsl": "580",
    "sonel_gps": "2999",
    "sonel_tg": "2998",
    "name": "Belem",
    "country": "BR",
    "geo:lat": -1.45,
    "geo:lon": -48.5,
    "dcterms:modified": "2015-10-22T17:02:29+00:00"
  },
  {
    "ssc_id": "SSC-belf",
    "psmsl": [
      "219",
      "861"
    ],
    "name": "Belfast",
    "country": "GB",
    "geo:lat": 54.6,
    "geo:lon": -5.92,
    "dcterms:modified": "2015-10-22T17:02:29+00:00"
  },
  {
    "ssc_id": "SSC-belg",
    "psmsl": "198",
    "sonel_gps": "926",
    "sonel_tg": "2340",
    "name": [
      "Belgrano",
      "BahiaBlanca"
    ],
    "country": "AR",
    "geo:lat": -38.88,
    "geo:lon": -62.1,
    "dcterms:modified": "2015-10-22T17:02:29+00:00"
  },
  {
    "ssc_id": "SSC-beli",
    "uhslc": "781",
    "psmsl": "1085",
    "name": "Belize",
    "country": "BZ",
    "geo:lat": 17.5,
    "geo:lon": -88.18,
    "dcterms:modified": "2016-04-14T13:56:51+00:00"
  },
  {
    "ssc_id": "SSC-bell",
    "psmsl": "984",
    "sonel_gps": "3209",
    "sonel_tg": "3208",
    "name": "Bella Bella",
    "country": "CA",
    "geo:lat": 52.17,
    "geo:lon": -128.13,
    "dcterms:modified": "2015-10-22T17:02:29+00:00"
  },
  {
    "ssc_id": "SSC-belle",
    "psmsl": "2069",
    "name": "Belledune",
    "country": "CA",
    "geo:lat": 47.9,
    "geo:lon": -65.85,
    "dcterms:modified": "2015-10-22T17:02:29+00:00"
  },
  {
    "ssc_id": "SSC-bellm",
    "psmsl": "1084",
    "name": "Bella Coola",
    "country": "CA",
    "geo:lat": 52.37,
    "geo:lon": -126.78,
    "dcterms:modified": "2015-10-22T17:02:29+00:00"
  },
  {
    "ssc_id": "SSC-bely",
    "psmsl": "859",
    "name": "Belyi Nos",
    "country": "RU",
    "geo:lat": 69.6,
    "geo:lon": 60.22,
    "dcterms:modified": "2015-10-22T17:02:29+00:00"
  },
  {
    "ssc_id": "SSC-benc",
    "ioc": [
      "benc",
      "benc2"
    ],
    "ptwc": "benc",
    "psmsl": "719",
    "name": "Beaufort",
    "country": "US",
    "geo:lat": 34.72,
    "geo:lon": -76.67,
    "dcterms:modified": "2015-10-22T17:02:29+00:00"
  },
  {
    "ssc_id": "SSC-beng",
    "psmsl": "273",
    "name": "Bengkulu",
    "country": "ID",
    "geo:lat": -3.78,
    "geo:lon": 102.25,
    "dcterms:modified": "2015-10-22T17:02:29+00:00"
  },
  {
    "ssc_id": "SSC-bengh",
    "psmsl": "346",
    "name": "Bengkalis",
    "country": "ID",
    "geo:lat": 1.47,
    "geo:lon": 102.13,
    "dcterms:modified": "2015-10-22T17:02:29+00:00"
  },
  {
    "ssc_id": "SSC-beno",
    "ioc": "beno",
    "ptwc": "beno",
    "gloss": "49",
    "uhslc": "163",
    "psmsl": [
      "1738",
      "2200"
    ],
    "sonel_gps": [
      "2945",
      "3404"
    ],
    "sonel_tg": [
      "2812",
      "3585"
    ],
    "name": "Benoa",
    "country": "ID",
    "geo:lat": -8.77,
    "geo:lon": 115.22,
    "dcterms:modified": "2015-10-22T17:02:29+00:00"
  },
  {
    "ssc_id": "SSC-berg",
    "psmsl": "58",
    "name": "Bergen",
    "country": "NO",
    "geo:lat": 60.4,
    "geo:lon": 5.32,
    "dcterms:modified": "2015-10-22T17:02:29+00:00"
  },
  {
    "ssc_id": "SSC-berl",
    "psmsl": "442",
    "name": "Berlevag",
    "country": "NO",
    "geo:lat": 70.85,
    "geo:lon": 29.1,
    "dcterms:modified": "2015-10-22T17:02:29+00:00"
  },
  {
    "ssc_id": "SSC-berm",
    "psmsl": "1977",
    "name": "Bermagui",
    "country": "AU",
    "geo:lat": -36.42,
    "geo:lon": 150.07,
    "dcterms:modified": "2015-10-22T17:02:29+00:00"
  },
  {
    "ssc_id": "SSC-bgct",
    "ioc": [
      "bgct",
      "bgct2"
    ],
    "ptwc": "bgct",
    "psmsl": "1068",
    "name": "Bridgeport",
    "country": "US",
    "geo:lat": 41.17,
    "geo:lon": -73.18,
    "dcterms:modified": "2015-10-22T17:02:29+00:00"
  },
  {
    "ssc_id": "SSC-bhau",
    "psmsl": [
      "420",
      "804"
    ],
    "name": "Bhaunagari",
    "country": "IN",
    "geo:lat": 21.8,
    "geo:lon": 72.3,
    "dcterms:modified": "2015-10-22T17:02:29+00:00"
  },
  {
    "ssc_id": "SSC-bhmd",
    "ptwc": "bhmd",
    "name": "Bishops Head",
    "country": "US",
    "geo:lat": 38.22,
    "geo:lon": -76.04,
    "dcterms:modified": "2015-10-22T17:02:29+00:00"
  },
  {
    "ssc_id": "SSC-bilb",
    "ioc": "bil3",
    "psmsl": "1806",
    "sonel_gps": "3467",
    "sonel_tg": "3466",
    "name": "Bilbao",
    "country": "ES",
    "geo:lat": 43.36,
    "geo:lon": -3.05,
    "dcterms:modified": "2015-10-22T17:28:18+00:00"
  },
  {
    "ssc_id": "SSC-bili",
    "sonel_gps": "636",
    "name": "Bilibino",
    "country": "RU",
    "geo:lat": 68.08,
    "geo:lon": 166.44,
    "dcterms:modified": "2015-10-22T17:02:29+00:00"
  },
  {
    "ssc_id": "SSC-bill",
    "psmsl": "708",
    "name": "Billinga",
    "country": "RU",
    "geo:lat": 69.88,
    "geo:lon": 175.77,
    "dcterms:modified": "2015-10-22T17:02:29+00:00"
  },
  {
    "ssc_id": "SSC-bint",
    "uhslc": "387",
    "psmsl": "1833",
    "sonel_gps": [
      "3374",
      "919"
    ],
    "sonel_tg": "2325",
    "name": "Bintulu",
    "country": "MY",
    "geo:lat": 3.22,
    "geo:lon": 113.07,
    "dcterms:modified": "2015-10-22T17:02:29+00:00"
  },
  {
    "ssc_id": "SSC-biri",
    "psmsl": "297",
    "name": [
      "BiriIsland",
      "Samar"
    ],
    "country": "PH",
    "geo:lat": 12.65,
    "geo:lon": 124.37,
    "dcterms:modified": "2015-10-22T17:02:29+00:00"
  },
  {
    "ssc_id": "SSC-bitu",
    "ioc": "bitu",
    "ptwc": "bitg",
    "gloss": "69",
    "uhslc": "33",
    "psmsl": [
      "1709",
      "308"
    ],
    "sonel_gps": [
      "3215",
      "3405"
    ],
    "sonel_tg": "2822",
    "name": "Bitung",
    "country": "ID",
    "geo:lat": 1.44,
    "geo:lon": 125.19,
    "dcterms:modified": "2015-10-22T17:02:29+00:00"
  },
  {
    "ssc_id": "SSC-bjfs",
    "sonel_gps": "637",
    "name": "Beijing Fangshan",
    "country": "CN",
    "geo:lat": 39.61,
    "geo:lon": 115.89,
    "dcterms:modified": "2015-10-22T17:02:29+00:00"
  },
  {
    "ssc_id": "SSC-bjor",
    "gloss": "232",
    "name": "Bjornoya ",
    "country": "NO",
    "geo:lat": 74.43,
    "geo:lon": 19.17,
    "dcterms:modified": "2015-10-22T17:02:29+00:00"
  },
  {
    "ssc_id": "SSC-bjorl",
    "psmsl": "90",
    "name": "Bjorn",
    "country": "SE",
    "geo:lat": 60.63,
    "geo:lon": 17.97,
    "dcterms:modified": "2015-10-22T17:02:29+00:00"
  },
  {
    "ssc_id": "SSC-blac",
    "psmsl": "1436",
    "name": "Blacktoft",
    "country": "GB",
    "geo:lat": 53.68,
    "geo:lon": -0.7,
    "dcterms:modified": "2015-10-22T17:02:29+00:00"
  },
  {
    "ssc_id": "SSC-blnj",
    "ptwc": "blnj",
    "name": "Burlington",
    "country": "US",
    "geo:lat": 40.08,
    "geo:lon": -74.87,
    "dcterms:modified": "2015-10-22T17:02:29+00:00"
  },
  {
    "ssc_id": "SSC-blow",
    "ioc": "blow",
    "name": "Blowing point",
    "country": "AI",
    "geo:lat": 18.17,
    "geo:lon": -63.09,
    "dcterms:modified": "2017-04-21T07:32:01+00:00"
  },
  {
    "ssc_id": "SSC-blri",
    "ioc": "blri",
    "ptwc": "blri",
    "name": "Prudence Island",
    "country": "US",
    "geo:lat": 41.6,
    "geo:lon": -71.3,
    "dcterms:modified": "2015-10-22T17:02:29+00:00"
  },
  {
    "ssc_id": "SSC-blueb",
    "ioc": "blueb",
    "ptwc": "blue",
    "psmsl": "930",
    "name": "Blue Bay",
    "country": "MU",
    "geo:lat": -20.44,
    "geo:lon": 57.71,
    "dcterms:modified": "2015-10-22T17:02:29+00:00"
  },
  {
    "ssc_id": "SSC-bluf",
    "gloss": "129",
    "uhslc": "72",
    "psmsl": "213",
    "sonel_gps": "2907",
    "sonel_tg": "2844",
    "name": "Bluff",
    "country": "NZ",
    "geo:lat": -46.6,
    "geo:lon": 168.35,
    "dcterms:modified": "2015-10-22T17:02:29+00:00"
  },
  {
    "ssc_id": "SSC-blyt",
    "psmsl": "769",
    "name": "Blyth",
    "country": "GB",
    "geo:lat": 55.12,
    "geo:lon": -1.48,
    "dcterms:modified": "2015-10-22T17:02:29+00:00"
  },
  {
    "ssc_id": "SSC-bmda",
    "ioc": [
      "bmda",
      "bmda2"
    ],
    "ptwc": "bmda",
    "gloss": "221",
    "uhslc": "259",
    "psmsl": [
      "368",
      "4",
      "886"
    ],
    "sonel_gps": "641",
    "sonel_tg": "2215",
    "name": [
      "Bermuda",
      "St.GeorgesIs."
    ],
    "country": "GB",
    "geo:lat": 32.37,
    "geo:lon": -64.7,
    "dcterms:modified": "2015-10-22T17:02:29+00:00"
  },
  {
    "ssc_id": "SSC-bmsa",
    "ioc": [
      "bmsa",
      "bmsa2"
    ],
    "ptwc": "bmsa",
    "name": "Bahia Mansa",
    "country": "CL",
    "geo:lat": -40.58,
    "geo:lon": -73.74,
    "dcterms:modified": "2015-10-22T17:02:29+00:00"
  },
  {
    "ssc_id": "SSC-bnjl",
    "ioc": "bnjl",
    "name": "Banjul",
    "country": "GM",
    "geo:lat": 13.44,
    "geo:lon": -16.57,
    "dcterms:modified": "2015-10-22T17:02:29+00:00"
  },
  {
    "ssc_id": "SSC-boav",
    "sonel_gps": "3073",
    "name": "Boa Vista",
    "country": "BR",
    "geo:lat": 2.85,
    "geo:lon": -60.7,
    "dcterms:modified": "2015-10-22T17:02:29+00:00"
  },
  {
    "ssc_id": "SSC-bodo",
    "psmsl": "562",
    "name": "Bodo",
    "country": "NO",
    "geo:lat": 67.29,
    "geo:lon": 14.39,
    "dcterms:modified": "2015-10-22T17:02:29+00:00"
  },
  {
    "ssc_id": "SSC-bodr",
    "ioc": "bodr",
    "psmsl": [
      "1204",
      "1680"
    ],
    "name": "Bodrum",
    "country": "TR",
    "geo:lat": 37.03,
    "geo:lon": 27.42,
    "dcterms:modified": "2015-10-22T17:02:29+00:00"
  },
  {
    "ssc_id": "SSC-bogt",
    "sonel_gps": "2410",
    "name": "Bogota",
    "country": "CO",
    "geo:lat": 4.64,
    "geo:lon": -74.08,
    "dcterms:modified": "2015-10-22T17:02:29+00:00"
  },
  {
    "ssc_id": "SSC-bolv",
    "psmsl": "651",
    "name": "Bolvanskii Nos (Fedorova)",
    "country": "RU",
    "geo:lat": 70.45,
    "geo:lon": 59.08,
    "dcterms:modified": "2015-10-22T17:02:29+00:00"
  },
  {
    "ssc_id": "SSC-boma",
    "ioc": [
      "boma",
      "boma2"
    ],
    "ptwc": "boma",
    "uhslc": "741",
    "psmsl": "235",
    "name": "Boston",
    "country": "US",
    "geo:lat": 42.35,
    "geo:lon": -71.05,
    "dcterms:modified": "2015-10-22T17:02:29+00:00"
  },
  {
    "ssc_id": "SSC-bomj",
    "sonel_gps": "3074",
    "name": "Bom Jesus Da Lapa",
    "country": "BR",
    "geo:lat": -13.26,
    "geo:lon": -68.01,
    "dcterms:modified": "2015-10-22T17:02:29+00:00"
  },
  {
    "ssc_id": "SSC-bona",
    "psmsl": "2135",
    "name": "Bonavista",
    "country": "CA",
    "geo:lat": 49.08,
    "geo:lon": -53.2,
    "dcterms:modified": "2015-10-22T17:02:29+00:00"
  },
  {
    "ssc_id": "SSC-bonn",
    "psmsl": "1039",
    "name": "Bonny",
    "country": "NG",
    "geo:lat": 4.45,
    "geo:lon": 7.18,
    "dcterms:modified": "2015-10-22T17:02:29+00:00"
  },
  {
    "ssc_id": "SSC-bonz",
    "ioc": "bon2",
    "psmsl": "1809",
    "name": "Bonanza",
    "country": "ES",
    "geo:lat": 36.8,
    "geo:lon": -6.34,
    "dcterms:modified": "2015-10-22T17:15:15+00:00"
  },
  {
    "ssc_id": "SSC-boob",
    "gloss": "61",
    "uhslc": "336",
    "psmsl": [
      "1268",
      "1333"
    ],
    "sonel_tg": "2817",
    "name": "Booby Island",
    "country": "AU",
    "geo:lat": -10.6,
    "geo:lon": 141.92,
    "dcterms:modified": "2015-10-22T17:02:29+00:00"
  },
  {
    "ssc_id": "SSC-borg",
    "psmsl": "1969",
    "name": "Borgund",
    "country": "NO",
    "geo:lat": 62.45,
    "geo:lon": 6.3,
    "dcterms:modified": "2015-10-22T17:02:29+00:00"
  },
  {
    "ssc_id": "SSC-bork",
    "ioc": "bork",
    "psmsl": [
      "1037",
      "573"
    ],
    "sonel_gps": [
      "1938",
      "2511",
      "639"
    ],
    "sonel_tg": "2512",
    "name": "Borkum Fischerbalje",
    "country": "DE",
    "geo:lat": 53.56,
    "geo:lon": 6.75,
    "dcterms:modified": "2015-10-22T17:02:29+00:00"
  },
  {
    "ssc_id": "SSC-borw",
    "sonel_gps": "638",
    "name": "Borowiec",
    "country": "PL",
    "geo:lat": 52.1,
    "geo:lon": 17.07,
    "dcterms:modified": "2015-10-22T17:22:58+00:00"
  },
  {
    "ssc_id": "SSC-bory",
    "psmsl": "1675",
    "name": "Boryeong",
    "country": "KR",
    "geo:lat": 36.41,
    "geo:lon": 126.49,
    "dcterms:modified": "2015-10-22T17:02:29+00:00"
  },
  {
    "ssc_id": "SSC-bota",
    "psmsl": [
      "1525",
      "1533"
    ],
    "name": "Botany Bay",
    "country": "AU",
    "geo:lat": -33.98,
    "geo:lon": 151.22,
    "dcterms:modified": "2015-10-22T17:02:29+00:00"
  },
  {
    "ssc_id": "SSC-bouc",
    "ioc": [
      "bouc",
      "bouc2"
    ],
    "ptwc": "bouc",
    "psmsl": "1801",
    "sonel_gps": "3192",
    "sonel_tg": [
      "1734",
      "3482"
    ],
    "name": "Boucau-Bayonne",
    "country": "FR",
    "geo:lat": 43.53,
    "geo:lon": -1.51,
    "dcterms:modified": "2015-10-22T17:02:29+00:00"
  },
  {
    "ssc_id": "SSC-boul",
    "ioc": [
      "boul",
      "boul2"
    ],
    "ptwc": "boul",
    "psmsl": "471",
    "sonel_gps": "3187",
    "sonel_tg": "1735",
    "name": "Boulogne-Sur-Mer",
    "country": "FR",
    "geo:lat": 50.73,
    "geo:lon": 1.58,
    "dcterms:modified": "2015-10-22T17:02:29+00:00"
  },
  {
    "ssc_id": "SSC-bour",
    "ioc": "bour",
    "psmsl": "1878",
    "name": "Bournemouth",
    "country": "GB",
    "geo:lat": 50.71,
    "geo:lon": -1.87,
    "dcterms:modified": "2015-10-22T17:02:29+00:00"
  },
  {
    "ssc_id": "SSC-bourc",
    "sonel_tg": "3495",
    "name": "Bourcefranc le Chapus",
    "country": "FR",
    "geo:lat": 45.85,
    "geo:lon": -1.18,
    "dcterms:modified": "2015-10-22T17:02:29+00:00"
  },
  {
    "ssc_id": "SSC-bourk",
    "psmsl": "317",
    "name": "Bourgas",
    "country": "BG",
    "geo:lat": 42.48,
    "geo:lon": 27.48,
    "dcterms:modified": "2015-10-22T17:02:29+00:00"
  },
  {
    "ssc_id": "SSC-bout",
    "psmsl": "1259",
    "name": "Boutilier Point",
    "country": "CA",
    "geo:lat": 44.67,
    "geo:lon": -63.97,
    "dcterms:modified": "2015-10-22T17:02:29+00:00"
  },
  {
    "ssc_id": "SSC-bowe",
    "psmsl": [
      "2074",
      "676"
    ],
    "name": "Bowen",
    "country": "AU",
    "geo:lat": -20.02,
    "geo:lon": 148.25,
    "dcterms:modified": "2015-10-22T17:02:29+00:00"
  },
  {
    "ssc_id": "SSC-bozy",
    "ioc": "bozy",
    "psmsl": "2014",
    "name": "Bozyazi",
    "country": "TR",
    "geo:lat": 36.1,
    "geo:lon": 32.94,
    "dcterms:modified": "2015-10-22T17:02:29+00:00"
  },
  {
    "ssc_id": "SSC-bpny",
    "ptwc": "bpny",
    "psmsl": "1637",
    "sonel_gps": "3312",
    "sonel_tg": "3311",
    "name": [
      "BergenPoint",
      "StatenIsland"
    ],
    "country": "US",
    "geo:lat": 40.64,
    "geo:lon": -74.15,
    "dcterms:modified": "2015-10-22T17:02:29+00:00"
  },
  {
    "ssc_id": "SSC-braz",
    "sonel_gps": "640",
    "name": "Brasilia",
    "country": "BR",
    "geo:lat": -15.95,
    "geo:lon": -47.88,
    "dcterms:modified": "2015-10-22T17:02:29+00:00"
  },
  {
    "ssc_id": "SSC-brem",
    "psmsl": [
      "124",
      "625"
    ],
    "sonel_gps": "2518",
    "sonel_tg": "2517",
    "name": "Bremerhaven",
    "country": "DE",
    "geo:lat": 53.55,
    "geo:lon": 8.57,
    "dcterms:modified": "2015-10-22T17:02:29+00:00"
  },
  {
    "ssc_id": "SSC-bres",
    "ioc": "bres",
    "gloss": "242",
    "uhslc": "822",
    "psmsl": "1",
    "sonel_gps": [
      "3180",
      "642"
    ],
    "sonel_tg": "1736",
    "name": "Brest",
    "country": "FR",
    "geo:lat": 48.38,
    "geo:lon": -4.5,
    "dcterms:modified": "2015-10-22T17:02:29+00:00"
  },
  {
    "ssc_id": "SSC-brew",
    "sonel_gps": "2411",
    "name": "Brewster",
    "country": "US",
    "geo:lat": 48.13,
    "geo:lon": -119.68,
    "dcterms:modified": "2015-10-22T17:02:29+00:00"
  },
  {
    "ssc_id": "SSC-brid",
    "ioc": "brid",
    "ptwc": "brid",
    "uhslc": "249",
    "psmsl": [
      "1231",
      "1766"
    ],
    "sonel_gps": [
      "2092",
      "634"
    ],
    "sonel_tg": "2217",
    "name": "Bridgetown Port",
    "country": "BB",
    "geo:lat": 13.11,
    "geo:lon": -59.62,
    "dcterms:modified": "2015-10-22T17:02:29+00:00"
  },
  {
    "ssc_id": "SSC-brig",
    "psmsl": "677",
    "name": "Brighton",
    "country": "AU",
    "geo:lat": -35.03,
    "geo:lon": 138.52,
    "dcterms:modified": "2015-10-22T17:02:29+00:00"
  },
  {
    "ssc_id": "SSC-brin",
    "psmsl": "1478",
    "name": "Brindisi",
    "country": "IT",
    "geo:lat": 40.63,
    "geo:lon": 17.93,
    "dcterms:modified": "2015-10-22T17:02:29+00:00"
  },
  {
    "ssc_id": "SSC-bris",
    "gloss": "58",
    "uhslc": "331",
    "psmsl": [
      "822",
      "851"
    ],
    "sonel_gps": [
      "3217",
      "3218"
    ],
    "sonel_tg": "2815",
    "name": "Brisbane ",
    "country": "AU",
    "geo:lat": -27.37,
    "geo:lon": 153.17,
    "dcterms:modified": "2015-10-22T17:02:29+00:00"
  },
  {
    "ssc_id": "SSC-broc",
    "psmsl": "893",
    "name": "Broce",
    "country": "HR",
    "geo:lat": 42.82,
    "geo:lon": 17.72,
    "dcterms:modified": "2015-10-22T17:02:29+00:00"
  },
  {
    "ssc_id": "SSC-brom",
    "ioc": "brom",
    "ptwc": "brom",
    "gloss": "40",
    "uhslc": "166",
    "psmsl": [
      "1159",
      "1171"
    ],
    "sonel_gps": "3221",
    "sonel_tg": "2806",
    "name": "Broome",
    "country": "AU",
    "geo:lat": -18,
    "geo:lon": 122.22,
    "dcterms:modified": "2015-10-22T17:02:29+00:00"
  },
  {
    "ssc_id": "SSC-bron",
    "psmsl": "803",
    "name": "Bronnoysund",
    "country": "NO",
    "geo:lat": 65.48,
    "geo:lon": 12.22,
    "dcterms:modified": "2015-10-22T17:02:29+00:00"
  },
  {
    "ssc_id": "SSC-brou",
    "psmsl": [
      "1507",
      "36"
    ],
    "name": "Brouwershaven",
    "country": "NL",
    "geo:lat": 51.73,
    "geo:lon": 3.9,
    "dcterms:modified": "2015-10-22T17:02:29+00:00"
  },
  {
    "ssc_id": "SSC-brpt",
    "ioc": "brpt",
    "ptwc": "brpt",
    "uhslc": "547",
    "name": "Barbers Point",
    "country": "US",
    "geo:lat": 21.32,
    "geo:lon": -158.12,
    "dcterms:modified": "2015-10-22T17:02:29+00:00"
  },
  {
    "ssc_id": "SSC-brus",
    "sonel_gps": [
      "3011",
      "643"
    ],
    "name": "Brussels",
    "country": "BE",
    "geo:lat": 50.8,
    "geo:lon": 4.36,
    "dcterms:modified": "2015-10-22T17:02:29+00:00"
  },
  {
    "ssc_id": "SSC-btla",
    "ptwc": "btla",
    "name": "Bulk Terminal",
    "country": "US",
    "geo:lat": 30.19,
    "geo:lon": -93.3,
    "dcterms:modified": "2015-10-22T17:02:29+00:00"
  },
  {
    "ssc_id": "SSC-btny",
    "ioc": [
      "btny",
      "btny2"
    ],
    "ptwc": "btny",
    "uhslc": "745",
    "psmsl": [
      "12",
      "232",
      "92"
    ],
    "sonel_gps": "2722",
    "sonel_tg": "2389",
    "name": "The Battery (New York)",
    "country": "US",
    "geo:lat": 40.7,
    "geo:lon": -74.02,
    "dcterms:modified": "2015-10-22T17:02:29+00:00"
  },
  {
    "ssc_id": "SSC-buca",
    "ioc": [
      "buca",
      "buca2"
    ],
    "ptwc": "buca",
    "name": "Bucalemu",
    "country": "CL",
    "geo:lat": -34.64,
    "geo:lon": -72.05,
    "dcterms:modified": "2015-10-22T17:02:29+00:00"
  },
  {
    "ssc_id": "SSC-buck",
    "psmsl": "1281",
    "name": "Buckie",
    "country": "GB",
    "geo:lat": 57.67,
    "geo:lon": -2.97,
    "dcterms:modified": "2015-10-22T17:02:29+00:00"
  },
  {
    "ssc_id": "SSC-bucke",
    "psmsl": "1720",
    "name": [
      "Bucksport",
      "WaccamawR."
    ],
    "country": "US",
    "geo:lat": 33.65,
    "geo:lon": -79.09,
    "dcterms:modified": "2015-10-22T17:02:29+00:00"
  },
  {
    "ssc_id": "SSC-bueno",
    "uhslc": "285",
    "psmsl": [
      "157",
      "832"
    ],
    "sonel_gps": [
      "2045",
      "2486",
      "3240"
    ],
    "sonel_tg": [
      "2391",
      "2392"
    ],
    "name": "Buenos Aires",
    "country": "AR",
    "geo:lat": -34.67,
    "geo:lon": -58.5,
    "dcterms:modified": "2015-10-22T17:02:29+00:00"
  },
  {
    "ssc_id": "SSC-bues",
    "psmsl": "504",
    "sonel_gps": "2520",
    "sonel_tg": "2519",
    "name": "Buesum",
    "country": "DE",
    "geo:lat": 54.13,
    "geo:lon": 8.85,
    "dcterms:modified": "2015-10-22T17:02:29+00:00"
  },
  {
    "ssc_id": "SSC-bugr",
    "psmsl": "2025",
    "name": "Bugrino",
    "country": "RU",
    "geo:lat": 68.8,
    "geo:lon": 49.33,
    "dcterms:modified": "2015-10-22T17:02:29+00:00"
  },
  {
    "ssc_id": "SSC-buko",
    "psmsl": [
      "1895",
      "2032"
    ],
    "name": "Bukom",
    "country": "SG",
    "geo:lat": 1.23,
    "geo:lon": 103.78,
    "dcterms:modified": "2015-10-22T17:02:29+00:00"
  },
  {
    "ssc_id": "SSC-bull",
    "ioc": [
      "bull",
      "will"
    ],
    "ptwc": "bull",
    "uhslc": "878",
    "name": "Bullen Bay",
    "country": "CW",
    "geo:lat": 12.19,
    "geo:lon": -69.02,
    "dcterms:modified": "2015-10-22T17:02:29+00:00"
  },
  {
    "ssc_id": "SSC-bunb",
    "psmsl": [
      "1042",
      "834"
    ],
    "name": "Bunbury",
    "country": "AU",
    "geo:lat": -33.32,
    "geo:lon": 115.66,
    "dcterms:modified": "2015-10-22T17:02:29+00:00"
  },
  {
    "ssc_id": "SSC-buor",
    "psmsl": "735",
    "name": "Buorhaia (Buorhaia Mys)",
    "country": "RU",
    "geo:lat": 71.95,
    "geo:lon": 132.77,
    "dcterms:modified": "2015-10-22T17:02:29+00:00"
  },
  {
    "ssc_id": "SSC-burn",
    "gloss": "59",
    "uhslc": "332",
    "psmsl": [
      "1154",
      "1166"
    ],
    "sonel_gps": "2927",
    "sonel_tg": "2816",
    "name": "Burnett Heads ",
    "country": "AU",
    "geo:lat": -24.77,
    "geo:lon": 152.38,
    "dcterms:modified": "2015-10-22T17:02:29+00:00"
  },
  {
    "ssc_id": "SSC-busa",
    "ioc": "busa",
    "ptwc": "busa",
    "gloss": "84",
    "psmsl": "955",
    "sonel_gps": "2909",
    "sonel_tg": "2830",
    "name": "Busan",
    "country": "KR",
    "geo:lat": 35.09,
    "geo:lon": 129.04,
    "dcterms:modified": "2015-10-22T17:02:29+00:00"
  },
  {
    "ssc_id": "SSC-bush",
    "psmsl": "1939",
    "name": "Bushehr",
    "country": "IR",
    "geo:lat": 28.9,
    "geo:lon": 50.75,
    "dcterms:modified": "2015-10-22T17:02:29+00:00"
  },
  {
    "ssc_id": "SSC-buve",
    "ioc": [
      "buve",
      "buve2"
    ],
    "ptwc": "buve",
    "gloss": "170",
    "uhslc": "85",
    "psmsl": "456",
    "sonel_gps": "2046",
    "sonel_tg": "2393",
    "name": "Buenaventura",
    "country": "CO",
    "geo:lat": 3.89,
    "geo:lon": -77.08,
    "dcterms:modified": "2015-10-22T17:02:29+00:00"
  },
  {
    "ssc_id": "SSC-buzz",
    "psmsl": "776",
    "name": "Buzzards Bay",
    "country": "US",
    "geo:lat": 41.74,
    "geo:lon": -70.62,
    "dcterms:modified": "2015-10-22T17:02:29+00:00"
  },
  {
    "ssc_id": "SSC-bwde",
    "ptwc": "bwde",
    "name": "Brandywine",
    "country": "US",
    "geo:lat": 38.99,
    "geo:lon": -75.11,
    "dcterms:modified": "2015-10-22T17:02:29+00:00"
  },
  {
    "ssc_id": "SSC-bwla",
    "ptwc": "bwla",
    "name": "Berwick",
    "country": "US",
    "geo:lat": 29.67,
    "geo:lon": -91.24,
    "dcterms:modified": "2015-10-22T17:02:29+00:00"
  },
  {
    "ssc_id": "SSC-byko",
    "psmsl": "1399",
    "name": "Bykov Mys (Bykov Mys)",
    "country": "RU",
    "geo:lat": 72,
    "geo:lon": 129.12,
    "dcterms:modified": "2015-10-22T17:02:29+00:00"
  },
  {
    "ssc_id": "SSC-cabc",
    "ioc": "cabc",
    "ptwc": "cabc",
    "name": "Carrie Bow Cay",
    "country": "BZ",
    "geo:lat": 16.8,
    "geo:lon": -88.08,
    "dcterms:modified": "2016-04-14T13:59:47+00:00"
  },
  {
    "ssc_id": "SSC-cabo",
    "ioc": "cabo",
    "ptwc": "cabo",
    "gloss": "161",
    "uhslc": "34",
    "psmsl": "1355",
    "sonel_tg": "2851",
    "name": "Cabo San Lucas",
    "country": "MX",
    "geo:lat": 22.88,
    "geo:lon": -109.91,
    "dcterms:modified": "2015-10-22T17:02:29+00:00"
  },
  {
    "ssc_id": "SSC-cabod",
    "psmsl": "1910",
    "name": "Cabo Cruz",
    "country": "CU",
    "geo:lat": 19.83,
    "geo:lon": -77.73,
    "dcterms:modified": "2015-10-22T17:02:29+00:00"
  },
  {
    "ssc_id": "SSC-cabos",
    "gloss": "214",
    "psmsl": "1297",
    "sonel_tg": "2874",
    "name": "Cabo San Antonio",
    "country": "CU",
    "geo:lat": 21.9,
    "geo:lon": -84.9,
    "dcterms:modified": "2015-10-22T17:02:29+00:00"
  },
  {
    "ssc_id": "SSC-cadi",
    "ioc": "cadi",
    "ptwc": "cadi",
    "psmsl": [
      "209",
      "514",
      "985"
    ],
    "sonel_gps": [
      "3055",
      "3460",
      "839"
    ],
    "sonel_tg": [
      "2182",
      "2397"
    ],
    "name": "Cadiz",
    "country": "ES",
    "geo:lat": 36.5,
    "geo:lon": -6.2,
    "dcterms:modified": "2015-10-22T17:02:29+00:00"
  },
  {
    "ssc_id": "SSC-cagl",
    "ioc": "CA02",
    "ptwc": "cagl",
    "psmsl": [
      "104",
      "2089"
    ],
    "sonel_gps": [
      "2412",
      "3575",
      "645"
    ],
    "sonel_tg": "2252",
    "name": "Cagliari",
    "country": "IT",
    "geo:lat": 39.21,
    "geo:lon": 9.11,
    "dcterms:modified": "2015-10-22T17:15:37+00:00"
  },
  {
    "ssc_id": "SSC-cair",
    "psmsl": [
      "953",
      "961"
    ],
    "name": "Cairns",
    "country": "AU",
    "geo:lat": -16.92,
    "geo:lon": 145.78,
    "dcterms:modified": "2015-10-22T17:02:29+00:00"
  },
  {
    "ssc_id": "SSC-cala",
    "ioc": [
      "cala",
      "cala2"
    ],
    "ptwc": "cals",
    "psmsl": "455",
    "sonel_gps": "3539",
    "sonel_tg": "1739",
    "name": "Calais",
    "country": "FR",
    "geo:lat": 50.97,
    "geo:lon": 1.87,
    "dcterms:modified": "2015-10-22T17:02:29+00:00"
  },
  {
    "ssc_id": "SSC-calao",
    "psmsl": "419",
    "name": "Calabar",
    "country": "NG",
    "geo:lat": 4.97,
    "geo:lon": 8.32,
    "dcterms:modified": "2015-10-22T17:02:29+00:00"
  },
  {
    "ssc_id": "SSC-cald",
    "ioc": [
      "cald",
      "cald2"
    ],
    "ptwc": "cald",
    "uhslc": "88",
    "psmsl": [
      "1512",
      "619"
    ],
    "name": "Caldera",
    "country": "CL",
    "geo:lat": -27.06,
    "geo:lon": -70.82,
    "dcterms:modified": "2015-10-22T17:02:29+00:00"
  },
  {
    "ssc_id": "SSC-cale",
    "psmsl": "994",
    "name": "Caleta Percy",
    "country": "CL",
    "geo:lat": -52.9,
    "geo:lon": -70.27,
    "dcterms:modified": "2015-10-22T17:02:29+00:00"
  },
  {
    "ssc_id": "SSC-call",
    "ioc": "call",
    "ptwc": "call",
    "gloss": "173",
    "uhslc": "93",
    "psmsl": [
      "1274",
      "480",
      "629",
      "739"
    ],
    "sonel_gps": "2049",
    "sonel_tg": "2120",
    "name": [
      "Callao",
      "LaPunta"
    ],
    "country": "PE",
    "geo:lat": -12.07,
    "geo:lon": -77.17,
    "dcterms:modified": "2015-10-22T17:02:29+00:00"
  },
  {
    "ssc_id": "SSC-calq",
    "ioc": "calq",
    "ptwc": "calq",
    "psmsl": "2006",
    "name": "Calliaqua",
    "country": "VC",
    "geo:lat": 13.13,
    "geo:lon": -61.2,
    "dcterms:modified": "2015-10-22T17:02:29+00:00"
  },
  {
    "ssc_id": "SSC-camb",
    "psmsl": "1132",
    "name": "Cambridge Bay",
    "country": "CA",
    "geo:lat": 69.12,
    "geo:lon": -105.07,
    "dcterms:modified": "2015-10-22T17:02:29+00:00"
  },
  {
    "ssc_id": "SSC-camp",
    "ioc": "crbc",
    "ptwc": "crbc",
    "psmsl": "1323",
    "sonel_gps": "3202",
    "sonel_tg": "3201",
    "name": "Campbell River",
    "country": "CA",
    "geo:lat": 50.02,
    "geo:lon": -125.23,
    "dcterms:modified": "2015-10-22T17:02:29+00:00"
  },
  {
    "ssc_id": "SSC-camt",
    "ioc": "camt",
    "sonel_gps": [
      "2992",
      "2993"
    ],
    "sonel_tg": "2991",
    "name": "Lerma Campeche",
    "country": "MX",
    "geo:lat": 19.81,
    "geo:lon": -90.59,
    "dcterms:modified": "2015-10-22T17:02:29+00:00"
  },
  {
    "ssc_id": "SSC-camu",
    "ioc": "camu",
    "ptwc": "camu",
    "name": "Caja de Muertos",
    "country": "PR",
    "geo:lat": 17.89,
    "geo:lon": -66.53,
    "dcterms:modified": "2015-10-22T17:02:29+00:00"
  },
  {
    "ssc_id": "SSC-cana",
    "gloss": "194",
    "uhslc": "281",
    "psmsl": "726",
    "sonel_gps": "752",
    "sonel_tg": "2230",
    "name": "Cananeia",
    "country": "BR",
    "geo:lat": -25.02,
    "geo:lon": -47.93,
    "dcterms:modified": "2015-10-22T17:02:29+00:00"
  },
  {
    "ssc_id": "SSC-canav",
    "uhslc": "707",
    "psmsl": "699",
    "name": "Canavieiras",
    "country": "BR",
    "geo:lat": -15.66,
    "geo:lon": -38.96,
    "dcterms:modified": "2015-10-22T17:02:29+00:00"
  },
  {
    "ssc_id": "SSC-cano",
    "psmsl": "1955",
    "name": "Canoe Pass",
    "country": "CA",
    "geo:lat": 50.25,
    "geo:lon": -125.42,
    "dcterms:modified": "2015-10-22T17:02:29+00:00"
  },
  {
    "ssc_id": "SSC-canog",
    "sonel_gps": "3069",
    "name": "Puerto Carreno",
    "country": "CO",
    "geo:lat": 6.19,
    "geo:lon": -67.48,
    "dcterms:modified": "2015-10-22T17:02:29+00:00"
  },
  {
    "ssc_id": "SSC-capa",
    "psmsl": [
      "1143",
      "2031"
    ],
    "name": "Cap Aux Meules",
    "country": "CA",
    "geo:lat": 47.38,
    "geo:lon": -61.86,
    "dcterms:modified": "2015-10-22T17:02:29+00:00"
  },
  {
    "ssc_id": "SSC-cape",
    "uhslc": "704",
    "psmsl": [
      "1195",
      "866"
    ],
    "sonel_tg": "3127",
    "name": [
      "CapeTown",
      "GrangerBay"
    ],
    "country": "ZA",
    "geo:lat": -33.9,
    "geo:lon": 18.43,
    "dcterms:modified": "2015-10-22T17:02:29+00:00"
  },
  {
    "ssc_id": "SSC-capei",
    "psmsl": "891",
    "name": "Cape Chelyuskin",
    "country": "RU",
    "geo:lat": 77.72,
    "geo:lon": 104.28,
    "dcterms:modified": "2015-10-22T17:02:29+00:00"
  },
  {
    "ssc_id": "SSC-capen",
    "psmsl": "1763",
    "sonel_gps": "2706",
    "sonel_tg": "2705",
    "name": "Cape Roberts Antarctica",
    "country": "AQ",
    "geo:lat": -77.03,
    "geo:lon": 163.19,
    "dcterms:modified": "2015-10-22T17:02:29+00:00"
  },
  {
    "ssc_id": "SSC-capet",
    "psmsl": "899",
    "name": "Cape Sorrell",
    "country": "AU",
    "geo:lat": -42.22,
    "geo:lon": 145.22,
    "dcterms:modified": "2015-10-22T17:02:29+00:00"
  },
  {
    "ssc_id": "SSC-capew",
    "psmsl": "1288",
    "name": "Cape D'Or",
    "country": "CA",
    "geo:lat": 45.3,
    "geo:lon": -64.78,
    "dcterms:modified": "2015-10-22T17:02:29+00:00"
  },
  {
    "ssc_id": "SSC-capex",
    "psmsl": "1282",
    "name": "Cape Parry",
    "country": "CA",
    "geo:lat": 70.15,
    "geo:lon": -124.67,
    "dcterms:modified": "2015-10-22T17:02:29+00:00"
  },
  {
    "ssc_id": "SSC-capey",
    "psmsl": "890",
    "name": "Cape Schmidt",
    "country": "RU",
    "geo:lat": 68.92,
    "geo:lon": 179.47,
    "dcterms:modified": "2015-10-22T17:02:29+00:00"
  },
  {
    "ssc_id": "SSC-capez",
    "psmsl": "901",
    "name": "Cape Zhelanija",
    "country": "RU",
    "geo:lat": 76.95,
    "geo:lon": 68.58,
    "dcterms:modified": "2015-10-22T17:02:29+00:00"
  },
  {
    "ssc_id": "SSC-caph",
    "ioc": "caph",
    "ptwc": "caph",
    "name": "Cap Haitien",
    "country": "HT",
    "geo:lat": 19.76,
    "geo:lon": -72.19,
    "dcterms:modified": "2015-10-22T17:02:29+00:00"
  },
  {
    "ssc_id": "SSC-capo",
    "psmsl": "873",
    "name": "Capo Passero",
    "country": "IT",
    "geo:lat": 36.67,
    "geo:lon": 15.3,
    "dcterms:modified": "2015-10-22T17:02:29+00:00"
  },
  {
    "ssc_id": "SSC-cara",
    "ioc": "cara",
    "name": "Carabane",
    "country": "SN",
    "geo:lat": 12.56,
    "geo:lon": -16.7,
    "dcterms:modified": "2015-10-22T17:02:29+00:00"
  },
  {
    "ssc_id": "SSC-carb",
    "ioc": "carb",
    "name": "Carboneras",
    "country": "ES",
    "geo:lat": 36.97,
    "geo:lon": -1.9,
    "dcterms:modified": "2015-10-22T17:02:29+00:00"
  },
  {
    "ssc_id": "SSC-care",
    "psmsl": "588",
    "name": "Carenero",
    "country": "VE",
    "geo:lat": 10.53,
    "geo:lon": -66.12,
    "dcterms:modified": "2015-10-22T17:02:29+00:00"
  },
  {
    "ssc_id": "SSC-carl",
    "ptwc": "cala",
    "name": "Carrolton",
    "country": "US",
    "geo:lat": 29.93,
    "geo:lon": -90.14,
    "dcterms:modified": "2015-10-22T17:02:29+00:00"
  },
  {
    "ssc_id": "SSC-carn",
    "gloss": "52",
    "uhslc": "167",
    "psmsl": [
      "1115",
      "1126"
    ],
    "sonel_tg": "2814",
    "name": "Carnarvon",
    "country": "AU",
    "geo:lat": -24.9,
    "geo:lon": 113.65,
    "dcterms:modified": "2015-10-22T17:02:29+00:00"
  },
  {
    "ssc_id": "SSC-cart",
    "ioc": "cart",
    "gloss": "207",
    "uhslc": "265",
    "psmsl": [
      "1848",
      "572"
    ],
    "sonel_gps": "925",
    "sonel_tg": "2282",
    "name": "Cartagena",
    "country": "CO",
    "geo:lat": 10.4,
    "geo:lon": -75.55,
    "dcterms:modified": "2015-10-22T17:02:29+00:00"
  },
  {
    "ssc_id": "SSC-cartm",
    "ioc": "carg",
    "psmsl": "1460",
    "sonel_gps": "3451",
    "sonel_tg": "3450",
    "name": "Cartagena",
    "country": "ES",
    "geo:lat": 37.6,
    "geo:lon": -0.97,
    "dcterms:modified": "2015-10-22T17:02:29+00:00"
  },
  {
    "ssc_id": "SSC-caru",
    "psmsl": "1165",
    "name": "Carupano",
    "country": "VE",
    "geo:lat": 10.67,
    "geo:lon": -63.25,
    "dcterms:modified": "2015-10-22T17:02:29+00:00"
  },
  {
    "ssc_id": "SSC-casa",
    "psmsl": "902",
    "name": "Casablanca",
    "country": "MA",
    "geo:lat": 33.6,
    "geo:lon": -7.6,
    "dcterms:modified": "2015-10-22T17:02:29+00:00"
  },
  {
    "ssc_id": "SSC-casc",
    "ioc": "casc",
    "gloss": "246",
    "uhslc": "209",
    "psmsl": [
      "2201",
      "52"
    ],
    "sonel_gps": "648",
    "sonel_tg": "2274",
    "name": "Cascais",
    "country": "PT",
    "geo:lat": 38.69,
    "geo:lon": -9.42,
    "dcterms:modified": "2015-10-22T17:02:29+00:00"
  },
  {
    "ssc_id": "SSC-case",
    "gloss": "278",
    "uhslc": "130",
    "psmsl": "1886",
    "sonel_gps": "647",
    "sonel_tg": "2199",
    "name": "Casey",
    "country": "AU",
    "geo:lat": -66.28,
    "geo:lon": 110.53,
    "dcterms:modified": "2015-10-22T17:02:29+00:00"
  },
  {
    "ssc_id": "SSC-casi",
    "psmsl": [
      "2021",
      "587"
    ],
    "name": "Casilda",
    "country": "CU",
    "geo:lat": 21.75,
    "geo:lon": -79.98,
    "dcterms:modified": "2015-10-22T17:02:29+00:00"
  },
  {
    "ssc_id": "SSC-cast",
    "ioc": "cast",
    "gloss": "330",
    "uhslc": "835",
    "psmsl": "1467",
    "sonel_tg": "2901",
    "name": "Castletownbere",
    "country": "IE",
    "geo:lat": 51.65,
    "geo:lon": -9.9,
    "dcterms:modified": "2015-10-22T17:02:29+00:00"
  },
  {
    "ssc_id": "SSC-casta",
    "psmsl": "1691",
    "name": "Castellammare Di Stabia",
    "country": "IT",
    "geo:lat": 40.68,
    "geo:lon": 14.47,
    "dcterms:modified": "2015-10-22T17:02:29+00:00"
  },
  {
    "ssc_id": "SSC-castr",
    "psmsl": "2005",
    "name": "Castries",
    "country": "LC",
    "geo:lat": 14.02,
    "geo:lon": -61,
    "dcterms:modified": "2015-10-22T17:02:29+00:00"
  },
  {
    "ssc_id": "SSC-cata",
    "uhslc": "313",
    "psmsl": [
      "1487",
      "1518"
    ],
    "name": "Catalina",
    "country": "US",
    "geo:lat": 33.45,
    "geo:lon": -118.48,
    "dcterms:modified": "2015-10-22T17:02:29+00:00"
  },
  {
    "ssc_id": "SSC-catag",
    "sonel_gps": "3090",
    "name": "San Fernando Del Valle De Catamarca",
    "country": "AR",
    "geo:lat": -28.47,
    "geo:lon": -65.77,
    "dcterms:modified": "2015-10-22T17:02:29+00:00"
  },
  {
    "ssc_id": "SSC-catc",
    "psmsl": "1560",
    "name": "Cat Cay",
    "country": "US",
    "geo:lat": 25.55,
    "geo:lon": -79.28,
    "dcterms:modified": "2015-10-22T17:02:29+00:00"
  },
  {
    "ssc_id": "SSC-cati",
    "psmsl": "2172",
    "name": "Caticlan Malay Aklan",
    "country": "PH",
    "geo:lat": 11.95,
    "geo:lon": 121.93,
    "dcterms:modified": "2015-10-22T17:02:29+00:00"
  },
  {
    "ssc_id": "SSC-catn",
    "ioc": "CT03",
    "ptwc": "cata",
    "psmsl": [
      "102",
      "2094"
    ],
    "sonel_gps": "2253",
    "sonel_tg": "2251",
    "name": "Catania",
    "country": "IT",
    "geo:lat": 37.5,
    "geo:lon": 15.09,
    "dcterms:modified": "2015-10-22T17:28:26+00:00"
  },
  {
    "ssc_id": "SSC-caul",
    "psmsl": "306",
    "name": [
      "Caulfields",
      "B.C."
    ],
    "country": "CA",
    "geo:lat": 49.32,
    "geo:lon": -123.25,
    "dcterms:modified": "2015-10-22T17:02:29+00:00"
  },
  {
    "ssc_id": "SSC-caye",
    "gloss": "202",
    "uhslc": [
      "227",
      "850"
    ],
    "psmsl": [
      "1768",
      "2012"
    ],
    "sonel_gps": "3379",
    "sonel_tg": "2869",
    "name": "Cayenne",
    "country": "FR",
    "geo:lat": 4.85,
    "geo:lon": -52.28,
    "dcterms:modified": "2015-10-22T17:02:29+00:00"
  },
  {
    "ssc_id": "SSC-cbmd",
    "ioc": [
      "cbmd",
      "cbmd2"
    ],
    "ptwc": "cbmd",
    "psmsl": [
      "1295",
      "481"
    ],
    "sonel_gps": "694",
    "sonel_tg": [
      "2122",
      "2751"
    ],
    "name": "Cambridge",
    "country": "US",
    "geo:lat": 38.57,
    "geo:lon": -76.07,
    "dcterms:modified": "2015-10-22T17:02:29+00:00"
  },
  {
    "ssc_id": "SSC-cbva",
    "ioc": "cbva",
    "ptwc": [
      "cbva",
      "ccmd"
    ],
    "uhslc": "749",
    "psmsl": "1635",
    "name": "Chesapeake_Bay",
    "country": "US",
    "geo:lat": 36.97,
    "geo:lon": -76.11,
    "dcterms:modified": "2015-10-22T17:02:29+00:00"
  },
  {
    "ssc_id": "SSC-ccar",
    "ioc": "ccar",
    "uhslc": "779",
    "psmsl": "796",
    "name": "Ciudad del Carmen",
    "country": "MX",
    "geo:lat": 18.62,
    "geo:lon": -91.82,
    "dcterms:modified": "2015-10-22T17:02:29+00:00"
  },
  {
    "ssc_id": "SSC-cctx",
    "ioc": [
      "cctx",
      "cctx2"
    ],
    "ptwc": "cctx",
    "uhslc": [
      "258",
      "770"
    ],
    "psmsl": [
      "1447",
      "1903",
      "2118"
    ],
    "sonel_gps": [
      "1898",
      "659"
    ],
    "sonel_tg": [
      "2143",
      "3108"
    ],
    "name": "Corpus Christi",
    "country": "US",
    "geo:lat": 27.58,
    "geo:lon": -97.22,
    "dcterms:modified": "2015-10-22T17:02:29+00:00"
  },
  {
    "ssc_id": "SSC-cdtt",
    "ioc": "cdtt",
    "ptwc": "cdtt",
    "name": "Cedros Bay",
    "country": "TT",
    "geo:lat": 10.09,
    "geo:lon": -61.87,
    "dcterms:modified": "2015-10-22T17:02:29+00:00"
  },
  {
    "ssc_id": "SSC-cebu",
    "uhslc": "379",
    "psmsl": "394",
    "name": "Cebu",
    "country": "PH",
    "geo:lat": 10.3,
    "geo:lon": 123.92,
    "dcterms:modified": "2015-10-22T17:02:29+00:00"
  },
  {
    "ssc_id": "SSC-cedr",
    "ioc": "cedr",
    "ptwc": "cedr",
    "uhslc": "305",
    "psmsl": "1430",
    "name": "Cedros Island",
    "country": "MX",
    "geo:lat": 28.1,
    "geo:lon": -115.18,
    "dcterms:modified": "2015-10-22T17:02:29+00:00"
  },
  {
    "ssc_id": "SSC-cefe",
    "sonel_gps": "3075",
    "name": "Vitoria",
    "country": "BR",
    "geo:lat": -20.31,
    "geo:lon": -40.32,
    "dcterms:modified": "2015-10-22T17:02:29+00:00"
  },
  {
    "ssc_id": "SSC-ceib",
    "ioc": "ceib",
    "ptwc": "ceib",
    "name": "La Ceiba Cabotaje Harbor",
    "country": "HN",
    "geo:lat": 15.79,
    "geo:lon": -86.76,
    "dcterms:modified": "2015-10-22T17:02:29+00:00"
  },
  {
    "ssc_id": "SSC-cent",
    "ioc": [
      "cent",
      "cent2"
    ],
    "ptwc": "cent",
    "psmsl": "2207",
    "sonel_gps": "3196",
    "sonel_tg": "3176",
    "name": "Centuri",
    "country": "FR",
    "geo:lat": 42.97,
    "geo:lon": 9.35,
    "dcterms:modified": "2015-10-22T17:02:29+00:00"
  },
  {
    "ssc_id": "SSC-cente",
    "psmsl": [
      "1175",
      "1176"
    ],
    "name": "Centre Island",
    "country": "AU",
    "geo:lat": -15.7,
    "geo:lon": 136.9,
    "dcterms:modified": "2015-10-22T17:02:29+00:00"
  },
  {
    "ssc_id": "SSC-ceut",
    "ioc": "ceut",
    "gloss": "249",
    "uhslc": "207",
    "psmsl": [
      "1316",
      "1416",
      "1485",
      "1517",
      "498"
    ],
    "sonel_gps": [
      "1922",
      "650"
    ],
    "sonel_tg": "2213",
    "name": "Ceuta",
    "country": "ES",
    "geo:lat": 35.9,
    "geo:lon": -5.32,
    "dcterms:modified": "2015-10-22T17:02:29+00:00"
  },
  {
    "ssc_id": "SSC-cfag",
    "sonel_gps": "2487",
    "name": "Coronel Fontana",
    "country": "AR",
    "geo:lat": -31.6,
    "geo:lon": -68.23,
    "dcterms:modified": "2015-10-22T17:02:29+00:00"
  },
  {
    "ssc_id": "SSC-cfrt",
    "ioc": "CF06",
    "psmsl": "2076",
    "name": "Carloforte",
    "country": "IT",
    "geo:lat": 39.14,
    "geo:lon": 8.31,
    "dcterms:modified": "2015-10-22T17:31:46+00:00"
  },
  {
    "ssc_id": "SSC-cgal",
    "ptwc": "cgal",
    "name": "Mobile Bay",
    "country": "US",
    "geo:lat": 30.65,
    "geo:lon": -88.06,
    "dcterms:modified": "2015-10-22T17:02:29+00:00"
  },
  {
    "ssc_id": "SSC-chab",
    "ioc": "chab",
    "ptwc": "chab",
    "gloss": "337",
    "uhslc": "915",
    "psmsl": [
      "1881",
      "2228"
    ],
    "sonel_tg": "2902",
    "name": "Chabahar Port",
    "country": "IR",
    "geo:lat": 25.3,
    "geo:lon": 60.6,
    "dcterms:modified": "2015-10-22T17:02:29+00:00"
  },
  {
    "ssc_id": "SSC-chac",
    "sonel_gps": "3091",
    "name": "Resistencia",
    "country": "AR",
    "geo:lat": -27.42,
    "geo:lon": -58.96,
    "dcterms:modified": "2015-10-22T17:02:29+00:00"
  },
  {
    "ssc_id": "SSC-cham",
    "uhslc": "670",
    "psmsl": "1201",
    "name": "Champerico",
    "country": "GT",
    "geo:lat": 14.3,
    "geo:lon": -91.92,
    "dcterms:modified": "2015-10-22T17:02:29+00:00"
  },
  {
    "ssc_id": "SSC-chamy",
    "psmsl": "1005",
    "name": "Champlain",
    "country": "CA",
    "geo:lat": 46.43,
    "geo:lon": -72.4,
    "dcterms:modified": "2015-10-22T17:02:29+00:00"
  },
  {
    "ssc_id": "SSC-char",
    "ioc": [
      "char",
      "char2"
    ],
    "ptwc": [
      "char",
      "chsc"
    ],
    "uhslc": "575",
    "psmsl": "1269",
    "sonel_gps": "3030",
    "sonel_tg": "3029",
    "name": "Charleston",
    "country": "US",
    "geo:lat": 43.34,
    "geo:lon": -124.32,
    "dcterms:modified": "2015-10-22T17:02:29+00:00"
  },
  {
    "ssc_id": "SSC-charf",
    "psmsl": "427",
    "name": "Charlottetown",
    "country": "CA",
    "geo:lat": 46.23,
    "geo:lon": -63.12,
    "dcterms:modified": "2015-10-22T17:02:29+00:00"
  },
  {
    "ssc_id": "SSC-charl",
    "uhslc": "261",
    "psmsl": "234",
    "sonel_gps": [
      "1894",
      "2008",
      "651"
    ],
    "sonel_tg": "2384",
    "name": "Charlestoni",
    "country": "US",
    "geo:lat": 32.78,
    "geo:lon": -79.92,
    "dcterms:modified": "2015-10-22T17:02:29+00:00"
  },
  {
    "ssc_id": "SSC-chat",
    "psmsl": "1484",
    "name": "Chatham",
    "country": "GB",
    "geo:lat": 51.4,
    "geo:lon": 0.55,
    "dcterms:modified": "2015-10-22T17:02:29+00:00"
  },
  {
    "ssc_id": "SSC-chch",
    "uhslc": "138",
    "psmsl": "1496",
    "name": "Charchanga",
    "country": "BD",
    "geo:lat": 22.22,
    "geo:lon": 91.05,
    "dcterms:modified": "2016-12-02T09:52:03+00:00"
  },
  {
    "ssc_id": "SSC-cheh",
    "psmsl": "748",
    "name": "Chehov",
    "country": "RU",
    "geo:lat": 47.47,
    "geo:lon": 142,
    "dcterms:modified": "2015-10-22T17:02:29+00:00"
  },
  {
    "ssc_id": "SSC-chen",
    "gloss": "293",
    "uhslc": "320",
    "psmsl": "1592",
    "sonel_gps": "2640",
    "sonel_tg": "2639",
    "name": "Chendering/Kuala Terengganu",
    "country": "MY",
    "geo:lat": 5.27,
    "geo:lon": 103.18,
    "dcterms:modified": "2015-10-22T17:02:29+00:00"
  },
  {
    "ssc_id": "SSC-chenn",
    "ioc": "chenn",
    "ptwc": "chen",
    "gloss": "34",
    "psmsl": "205",
    "sonel_gps": "2069",
    "sonel_tg": "2440",
    "name": "Chennai",
    "country": "IN",
    "geo:lat": 13.1,
    "geo:lon": 80.3,
    "dcterms:modified": "2015-10-22T17:02:29+00:00"
  },
  {
    "ssc_id": "SSC-cher",
    "ioc": [
      "cher",
      "cher2"
    ],
    "ptwc": "cher",
    "psmsl": "467",
    "sonel_gps": [
      "3182",
      "3183",
      "3535"
    ],
    "sonel_tg": "1748",
    "name": "Cherbourg",
    "country": "FR",
    "geo:lat": 49.65,
    "geo:lon": -1.63,
    "dcterms:modified": "2015-10-22T17:02:29+00:00"
  },
  {
    "ssc_id": "SSC-chet",
    "psmsl": "650",
    "name": "Chetyrehstolbovoi",
    "country": "RU",
    "geo:lat": 70.63,
    "geo:lon": 162.48,
    "dcterms:modified": "2015-10-22T17:02:29+00:00"
  },
  {
    "ssc_id": "SSC-chia",
    "ioc": [
      "chia",
      "made"
    ],
    "ptwc": [
      "chia",
      "made"
    ],
    "uhslc": "318",
    "psmsl": "1655",
    "name": "Puerto Chiapas",
    "country": "MX",
    "geo:lat": 14.7,
    "geo:lon": -92.41,
    "dcterms:modified": "2015-10-22T17:02:29+00:00"
  },
  {
    "ssc_id": "SSC-chij",
    "ioc": "chij",
    "ptwc": "chij",
    "gloss": "103",
    "uhslc": "47",
    "psmsl": "1391",
    "sonel_gps": [
      "2413",
      "808"
    ],
    "sonel_tg": "2137",
    "name": "Chichijima",
    "country": "JP",
    "geo:lat": 27.08,
    "geo:lon": 142.18,
    "dcterms:modified": "2015-10-22T17:02:29+00:00"
  },
  {
    "ssc_id": "SSC-chim",
    "psmsl": "771",
    "name": "Chimbote",
    "country": "PE",
    "geo:lat": -9.08,
    "geo:lon": -78.63,
    "dcterms:modified": "2015-10-22T17:02:29+00:00"
  },
  {
    "ssc_id": "SSC-chimh",
    "psmsl": "987",
    "name": [
      "ChiMaWan",
      "LantauIsland"
    ],
    "country": "HK",
    "geo:lat": 22.23,
    "geo:lon": 114,
    "dcterms:modified": "2015-10-22T17:02:29+00:00"
  },
  {
    "ssc_id": "SSC-chin",
    "psmsl": "970",
    "name": "Chinhae",
    "country": "KR",
    "geo:lat": 35.15,
    "geo:lon": 128.65,
    "dcterms:modified": "2015-10-22T17:02:29+00:00"
  },
  {
    "ssc_id": "SSC-chit",
    "ioc": [
      "chit",
      "owen"
    ],
    "ptwc": "chit",
    "gloss": "128",
    "psmsl": "1920",
    "sonel_gps": [
      "1992",
      "3560",
      "652"
    ],
    "sonel_tg": "1973",
    "name": "Chatham Island",
    "country": "NZ",
    "geo:lat": -44.02,
    "geo:lon": -176.37,
    "dcterms:modified": "2015-10-22T17:02:29+00:00"
  },
  {
    "ssc_id": "SSC-chiz",
    "sonel_gps": "929",
    "name": "Chize",
    "country": "FR",
    "geo:lat": 46.13,
    "geo:lon": -0.41,
    "dcterms:modified": "2015-10-22T17:02:29+00:00"
  },
  {
    "ssc_id": "SSC-chlt",
    "sonel_gps": "3001",
    "sonel_tg": "3000",
    "name": "Chetumal",
    "country": "MX",
    "geo:lat": 18.48,
    "geo:lon": -88.3,
    "dcterms:modified": "2015-10-22T17:02:29+00:00"
  },
  {
    "ssc_id": "SSC-chnr",
    "ioc": [
      "chnr",
      "chnr2"
    ],
    "ptwc": "chnr",
    "name": "Chaaral",
    "country": "CL",
    "geo:lat": -26.35,
    "geo:lon": -70.63,
    "dcterms:modified": "2015-10-22T17:02:29+00:00"
  },
  {
    "ssc_id": "SSC-chos",
    "psmsl": [
      "1188",
      "1363",
      "1544",
      "879"
    ],
    "name": "Choshi",
    "country": "JP",
    "geo:lat": 35.73,
    "geo:lon": 140.87,
    "dcterms:modified": "2015-10-22T17:02:29+00:00"
  },
  {
    "ssc_id": "SSC-chpi",
    "sonel_gps": "653",
    "name": "Cachoeira Paulista",
    "country": "BR",
    "geo:lat": -22.69,
    "geo:lon": -44.99,
    "dcterms:modified": "2015-10-22T17:02:29+00:00"
  },
  {
    "ssc_id": "SSC-chri",
    "psmsl": "1409",
    "name": "Christianso",
    "country": "DK",
    "geo:lat": 55.32,
    "geo:lon": 15.18,
    "dcterms:modified": "2015-10-22T17:02:29+00:00"
  },
  {
    "ssc_id": "SSC-chrl",
    "ioc": "chrl",
    "ptwc": "chrl",
    "psmsl": "2007",
    "name": "Charlotteville",
    "country": "TT",
    "geo:lat": 11.32,
    "geo:lon": -60.55,
    "dcterms:modified": "2015-10-22T17:02:29+00:00"
  },
  {
    "ssc_id": "SSC-chrp",
    "ioc": [
      "chrp",
      "chrp2"
    ],
    "ptwc": "chrp",
    "psmsl": "1633",
    "name": "Cherry Point",
    "country": "US",
    "geo:lat": 48.86,
    "geo:lon": -122.76,
    "dcterms:modified": "2015-10-22T17:02:29+00:00"
  },
  {
    "ssc_id": "SSC-chrs",
    "ioc": "chrs",
    "ptwc": "chrs",
    "gloss": "47",
    "uhslc": "170",
    "psmsl": "1010",
    "sonel_gps": "2929",
    "sonel_tg": "2811",
    "name": "Christmas Island",
    "country": "AU",
    "geo:lat": -10.43,
    "geo:lon": 105.67,
    "dcterms:modified": "2015-10-22T17:02:29+00:00"
  },
  {
    "ssc_id": "SSC-chtt",
    "ioc": "chtt",
    "ptwc": "chtt",
    "gloss": "36",
    "uhslc": "124",
    "psmsl": [
      "1573",
      "2196",
      "416",
      "750",
      "975",
      "991"
    ],
    "sonel_gps": "3599",
    "sonel_tg": "2804",
    "name": "Chittagong",
    "country": "BD",
    "geo:lat": 22.33,
    "geo:lon": 91.83,
    "dcterms:modified": "2015-10-22T17:02:29+00:00"
  },
  {
    "ssc_id": "SSC-chuj",
    "psmsl": "1588",
    "name": "Chujado",
    "country": "KR",
    "geo:lat": 33.96,
    "geo:lon": 126.3,
    "dcterms:modified": "2015-10-22T17:02:29+00:00"
  },
  {
    "ssc_id": "SSC-chum",
    "sonel_gps": "2414",
    "name": "Chumysh",
    "country": "KZ",
    "geo:lat": 43,
    "geo:lon": 74.75,
    "dcterms:modified": "2015-10-22T17:02:29+00:00"
  },
  {
    "ssc_id": "SSC-chur",
    "uhslc": "274",
    "psmsl": "447",
    "sonel_gps": "654",
    "sonel_tg": "2244",
    "name": "Churchill",
    "country": "CA",
    "geo:lat": 58.78,
    "geo:lon": -94.2,
    "dcterms:modified": "2015-10-22T17:02:29+00:00"
  },
  {
    "ssc_id": "SSC-chuu",
    "gloss": "116",
    "uhslc": "54",
    "psmsl": "528",
    "sonel_gps": "2626",
    "sonel_tg": "2625",
    "name": "Chuuk Atoll",
    "country": "FM",
    "geo:lat": 7.45,
    "geo:lon": 151.85,
    "dcterms:modified": "2015-10-22T17:02:29+00:00"
  },
  {
    "ssc_id": "SSC-cibo",
    "sonel_tg": "3497",
    "name": "Ciboure",
    "country": "FR",
    "geo:lat": 43.39,
    "geo:lon": -1.66,
    "dcterms:modified": "2015-10-22T17:02:29+00:00"
  },
  {
    "ssc_id": "SSC-cila",
    "ioc": [
      "cila",
      "cili"
    ],
    "ptwc": [
      "cila",
      "cili"
    ],
    "gloss": "291",
    "uhslc": "162",
    "psmsl": [
      "1602",
      "2199",
      "272"
    ],
    "sonel_gps": "3413",
    "sonel_tg": [
      "2892",
      "3586"
    ],
    "name": "Cilacap",
    "country": "ID",
    "geo:lat": -7.75,
    "geo:lon": 109,
    "dcterms:modified": "2015-10-22T17:02:29+00:00"
  },
  {
    "ssc_id": "SSC-cire",
    "psmsl": "282",
    "name": "Cirebon",
    "country": "ID",
    "geo:lat": -6.72,
    "geo:lon": 108.57,
    "dcterms:modified": "2015-10-22T17:02:29+00:00"
  },
  {
    "ssc_id": "SSC-ciud",
    "psmsl": "591",
    "name": "Ciudad Trujillo",
    "country": "DO",
    "geo:lat": 18.45,
    "geo:lon": -69.88,
    "dcterms:modified": "2015-10-22T17:02:29+00:00"
  },
  {
    "ssc_id": "SSC-ciuda",
    "uhslc": "277",
    "psmsl": [
      "1020",
      "698"
    ],
    "sonel_gps": "2052",
    "sonel_tg": [
      "2281",
      "2762"
    ],
    "name": "Ciudad Madero",
    "country": "MX",
    "geo:lat": 22.25,
    "geo:lon": -97.8,
    "dcterms:modified": "2015-10-22T17:02:29+00:00"
  },
  {
    "ssc_id": "SSC-civi",
    "ioc": "CI20",
    "psmsl": [
      "106",
      "2091"
    ],
    "sonel_gps": "2256",
    "sonel_tg": "2255",
    "name": "Civitavecchia",
    "country": "IT",
    "geo:lat": 42.09,
    "geo:lon": 11.79,
    "dcterms:modified": "2015-10-22T17:34:34+00:00"
  },
  {
    "ssc_id": "SSC-ckfl",
    "ptwc": "ckfl",
    "psmsl": [
      "199",
      "428"
    ],
    "name": "Cedar Key",
    "country": "US",
    "geo:lat": 29.14,
    "geo:lon": -83.03,
    "dcterms:modified": "2015-10-22T17:02:29+00:00"
  },
  {
    "ssc_id": "SSC-clip",
    "gloss": "165",
    "uhslc": "391",
    "psmsl": [
      "1697",
      "1992"
    ],
    "sonel_tg": "2853",
    "name": "Clipperton Island",
    "country": "FR",
    "geo:lat": 10.28,
    "geo:lon": -109.22,
    "dcterms:modified": "2015-10-22T17:02:29+00:00"
  },
  {
    "ssc_id": "SSC-clri",
    "ptwc": "clri",
    "name": "Conimicut light",
    "country": "US",
    "geo:lat": 41.72,
    "geo:lon": -71.34,
    "dcterms:modified": "2015-10-22T17:02:29+00:00"
  },
  {
    "ssc_id": "SSC-clst",
    "ioc": "clst",
    "ptwc": "clst",
    "uhslc": "861",
    "psmsl": "2180",
    "name": "Celestun",
    "country": "MX",
    "geo:lat": 20.86,
    "geo:lon": -90.41,
    "dcterms:modified": "2015-10-22T17:02:29+00:00"
  },
  {
    "ssc_id": "SSC-cltc",
    "sonel_gps": "3519",
    "name": "Clute Coop",
    "country": "US",
    "geo:lat": 29.01,
    "geo:lon": -95.4,
    "dcterms:modified": "2015-10-22T17:23:17+00:00"
  },
  {
    "ssc_id": "SSC-cmet",
    "ioc": [
      "cmet",
      "cmet3"
    ],
    "ptwc": "cmet",
    "name": "Caleta Meteoro",
    "country": "CL",
    "geo:lat": -52.97,
    "geo:lon": -74.07,
    "dcterms:modified": "2015-10-22T17:02:29+00:00"
  },
  {
    "ssc_id": "SSC-cmnj",
    "ioc": [
      "cmnj",
      "cmnj2"
    ],
    "ptwc": "cmnj",
    "uhslc": "746",
    "psmsl": "1153",
    "name": "Cape May",
    "country": "US",
    "geo:lat": 38.97,
    "geo:lon": -74.96,
    "dcterms:modified": "2015-10-22T17:02:29+00:00"
  },
  {
    "ssc_id": "SSC-coat",
    "psmsl": "692",
    "name": "Coatzacoalcos",
    "country": "MX",
    "geo:lat": 18.15,
    "geo:lon": -94.42,
    "dcterms:modified": "2015-10-22T17:02:29+00:00"
  },
  {
    "ssc_id": "SSC-cocb",
    "ioc": "cocb",
    "ptwc": "cocb",
    "gloss": "46",
    "uhslc": "171",
    "psmsl": [
      "1052",
      "1666",
      "983"
    ],
    "sonel_gps": "656",
    "sonel_tg": "2218",
    "name": "Cocos Island",
    "country": "AU",
    "geo:lat": -12.12,
    "geo:lon": 96.89,
    "dcterms:modified": "2015-10-22T17:02:29+00:00"
  },
  {
    "ssc_id": "SSC-coch",
    "ioc": "coch",
    "ptwc": "coch",
    "gloss": "32",
    "uhslc": "174",
    "psmsl": "438",
    "sonel_gps": "2067",
    "sonel_tg": "2438",
    "name": "Cochin",
    "country": "IN",
    "geo:lat": 9.97,
    "geo:lon": 76.27,
    "dcterms:modified": "2015-10-22T17:02:29+00:00"
  },
  {
    "ssc_id": "SSC-cochi",
    "uhslc": "269",
    "psmsl": "1874",
    "name": "Cochino Pequeno",
    "country": "HN",
    "geo:lat": 15.95,
    "geo:lon": -86.5,
    "dcterms:modified": "2015-10-22T17:02:29+00:00"
  },
  {
    "ssc_id": "SSC-coco",
    "gloss": "208",
    "uhslc": "266",
    "psmsl": [
      "1530",
      "169",
      "2202"
    ],
    "sonel_gps": "3511",
    "sonel_tg": "2871",
    "name": "Coco Solo",
    "country": "PA",
    "geo:lat": 9.37,
    "geo:lon": -79.88,
    "dcterms:modified": "2015-10-22T17:02:29+00:00"
  },
  {
    "ssc_id": "SSC-cocoa",
    "uhslc": "754",
    "name": "Cocoa Beach",
    "country": "US",
    "geo:lat": 28.37,
    "geo:lon": -80.6,
    "dcterms:modified": "2015-10-22T17:02:29+00:00"
  },
  {
    "ssc_id": "SSC-coff",
    "psmsl": [
      "799",
      "865",
      "878"
    ],
    "name": "Coff's Harbour",
    "country": "AU",
    "geo:lat": -30.35,
    "geo:lon": 153.03,
    "dcterms:modified": "2015-10-22T17:02:29+00:00"
  },
  {
    "ssc_id": "SSC-cois",
    "ioc": "cois",
    "name": "Corn Island",
    "country": "NI",
    "geo:lat": 12.33,
    "geo:lon": -83.07,
    "dcterms:modified": "2015-10-22T17:02:29+00:00"
  },
  {
    "ssc_id": "SSC-colo",
    "ioc": [
      "colb",
      "colo"
    ],
    "ptwc": [
      "colb",
      "colo"
    ],
    "gloss": "33",
    "uhslc": "115",
    "psmsl": [
      "1755",
      "2194",
      "388",
      "718"
    ],
    "sonel_gps": "3582",
    "sonel_tg": "1994",
    "name": "Colombo",
    "country": "LK",
    "geo:lat": 6.95,
    "geo:lon": 79.85,
    "dcterms:modified": "2015-10-22T17:02:29+00:00"
  },
  {
    "ssc_id": "SSC-color",
    "psmsl": "433",
    "name": "Colonia",
    "country": "UY",
    "geo:lat": -34.48,
    "geo:lon": -57.85,
    "dcterms:modified": "2015-10-22T17:02:29+00:00"
  },
  {
    "ssc_id": "SSC-comm",
    "psmsl": "2070",
    "sonel_gps": "3432",
    "sonel_tg": [
      "3430",
      "3431"
    ],
    "name": "Commonwealth Bay",
    "country": "AQ",
    "geo:lat": -67,
    "geo:lon": 142.65,
    "dcterms:modified": "2015-10-22T17:02:29+00:00"
  },
  {
    "ssc_id": "SSC-como",
    "ioc": "como",
    "ptwc": "como",
    "name": "Comores",
    "country": "KM",
    "geo:lat": -11.7,
    "geo:lon": 43.25,
    "dcterms:modified": "2015-10-22T17:02:29+00:00"
  },
  {
    "ssc_id": "SSC-comoq",
    "psmsl": "181",
    "name": "Comodoro Rivadavia",
    "country": "AR",
    "geo:lat": -45.87,
    "geo:lon": -67.48,
    "dcterms:modified": "2015-10-22T17:02:29+00:00"
  },
  {
    "ssc_id": "SSC-comor",
    "psmsl": "630",
    "name": "Comox",
    "country": "CA",
    "geo:lat": 49.67,
    "geo:lon": -124.92,
    "dcterms:modified": "2015-10-22T17:02:29+00:00"
  },
  {
    "ssc_id": "SSC-cona",
    "gloss": "255",
    "psmsl": "1477",
    "sonel_tg": "2881",
    "name": "Conakry",
    "country": "GN",
    "geo:lat": 9.52,
    "geo:lon": -13.72,
    "dcterms:modified": "2015-10-22T17:02:29+00:00"
  },
  {
    "ssc_id": "SSC-conc",
    "ioc": [
      "conc",
      "conc2"
    ],
    "ptwc": "conc",
    "psmsl": "1301",
    "sonel_gps": "3189",
    "sonel_tg": "1751",
    "name": "Concarneau",
    "country": "FR",
    "geo:lat": 47.87,
    "geo:lon": -3.91,
    "dcterms:modified": "2015-10-22T17:02:29+00:00"
  },
  {
    "ssc_id": "SSC-const",
    "ioc": [
      "cons2",
      "const"
    ],
    "ptwc": "cons",
    "name": "Constitucion",
    "country": "CL",
    "geo:lat": -35.36,
    "geo:lon": -72.46,
    "dcterms:modified": "2015-10-22T17:02:29+00:00"
  },
  {
    "ssc_id": "SSC-cook",
    "psmsl": [
      "1130",
      "1131"
    ],
    "name": "Cooktown",
    "country": "AU",
    "geo:lat": -15.47,
    "geo:lon": 145.25,
    "dcterms:modified": "2015-10-22T17:02:29+00:00"
  },
  {
    "ssc_id": "SSC-copp",
    "psmsl": "1340",
    "name": "Coppermine",
    "country": "CA",
    "geo:lat": 67.88,
    "geo:lon": -115.25,
    "dcterms:modified": "2015-10-22T17:02:29+00:00"
  },
  {
    "ssc_id": "SSC-coqu",
    "ioc": [
      "coqu",
      "coqu2"
    ],
    "ptwc": "coqu",
    "psmsl": "977",
    "name": "Coquimbo",
    "country": "CL",
    "geo:lat": -29.95,
    "geo:lon": -71.34,
    "dcterms:modified": "2015-10-22T17:02:29+00:00"
  },
  {
    "ssc_id": "SSC-cora",
    "psmsl": "1312",
    "name": "Coral Harbour",
    "country": "CA",
    "geo:lat": 64.13,
    "geo:lon": -83.17,
    "dcterms:modified": "2015-10-22T17:02:29+00:00"
  },
  {
    "ssc_id": "SSC-cord",
    "ioc": [
      "cord",
      "cord2"
    ],
    "ptwc": "cord",
    "uhslc": "583",
    "psmsl": "566",
    "sonel_gps": "2672",
    "sonel_tg": "2671",
    "name": "Cordova",
    "country": "US",
    "geo:lat": 60.56,
    "geo:lon": -145.75,
    "dcterms:modified": "2015-10-22T17:02:29+00:00"
  },
  {
    "ssc_id": "SSC-cordg",
    "sonel_gps": "658",
    "name": "Cordoba",
    "country": "AR",
    "geo:lat": -31.53,
    "geo:lon": -64.47,
    "dcterms:modified": "2015-10-22T17:02:29+00:00"
  },
  {
    "ssc_id": "SSC-corf",
    "psmsl": "1933",
    "sonel_gps": "2582",
    "sonel_tg": "2581",
    "name": "Corfu (Kerkyra)",
    "country": "GR",
    "geo:lat": 39.63,
    "geo:lon": 19.91,
    "dcterms:modified": "2015-10-22T17:02:29+00:00"
  },
  {
    "ssc_id": "SSC-cori",
    "ioc": "cori",
    "ptwc": "cori",
    "uhslc": "679",
    "name": "Corinto",
    "country": "NI",
    "geo:lat": 12.28,
    "geo:lon": -87.12,
    "dcterms:modified": "2015-10-22T17:02:29+00:00"
  },
  {
    "ssc_id": "SSC-corie",
    "ioc": "corn",
    "ptwc": "corn",
    "name": "Corinth",
    "country": "GR",
    "geo:lat": 37.95,
    "geo:lon": 22.94,
    "dcterms:modified": "2016-05-01T21:11:00+00:00"
  },
  {
    "ssc_id": "SSC-corr",
    "ioc": [
      "corr",
      "corr2"
    ],
    "ptwc": "corr",
    "psmsl": "1057",
    "sonel_gps": "2654",
    "sonel_tg": "2653",
    "name": "Corral",
    "country": "CL",
    "geo:lat": -39.89,
    "geo:lon": -73.43,
    "dcterms:modified": "2015-10-22T17:02:29+00:00"
  },